{"type":"FeatureCollection", "features": [
{"type":"Feature","geometry":{"type":"Point","coordinates":[33.08604049682617,68.96354675292969]},"properties":{"NAME":"Murmansk","COUNTRY":"Russia","CAPITAL":"N"}},
{"type":"Feature","geometry":{"type":"Point","coordinates":[40.64616012573242,64.52066802978516]},"properties":{"NAME":"Arkhangelsk","COUNTRY":"Russia","CAPITAL":"N"}},
{"type":"Feature","geometry":{"type":"Point","coordinates":[30.453327178955078,59.95188903808594]},"properties":{"NAME":"Saint Petersburg","COUNTRY":"Russia","CAPITAL":"N"}},
{"type":"Feature","geometry":{"type":"Point","coordinates":[150.78001403808594,59.57099914550781]},"properties":{"NAME":"Magadan","COUNTRY":"Russia","CAPITAL":"N"}},
{"type":"Feature","geometry":{"type":"Point","coordinates":[56.23246383666992,58.00023651123047]},"properties":{"NAME":"Perm'","COUNTRY":"Russia","CAPITAL":"N"}},
{"type":"Feature","geometry":{"type":"Point","coordinates":[60.610130310058594,56.84654235839844]},"properties":{"NAME":"Yekaterinburg","COUNTRY":"Russia","CAPITAL":"N"}},
{"type":"Feature","geometry":{"type":"Point","coordinates":[43.940670013427734,56.289676666259766]},"properties":{"NAME":"Nizhniy Novgorod","COUNTRY":"Russia","CAPITAL":"N"}},
{"type":"Feature","geometry":{"type":"Point","coordinates":[-4.269947528839111,55.86280822753906]},"properties":{"NAME":"Glasgow","COUNTRY":"UK","CAPITAL":"N"}},
{"type":"Feature","geometry":{"type":"Point","coordinates":[49.14546585083008,55.73300552368164]},"properties":{"NAME":"Kazan'","COUNTRY":"Russia","CAPITAL":"N"}},
{"type":"Feature","geometry":{"type":"Point","coordinates":[61.39261245727539,55.14500045776367]},"properties":{"NAME":"Chelyabinsk","COUNTRY":"Russia","CAPITAL":"N"}},
{"type":"Feature","geometry":{"type":"Point","coordinates":[73.25028991699219,55.06330490112305]},"properties":{"NAME":"Omsk","COUNTRY":"Russia","CAPITAL":"N"}},
{"type":"Feature","geometry":{"type":"Point","coordinates":[82.9428482055664,55.032100677490234]},"properties":{"NAME":"Novosibirsk","COUNTRY":"Russia","CAPITAL":"N"}},
{"type":"Feature","geometry":{"type":"Point","coordinates":[56.096126556396484,54.82173538208008]},"properties":{"NAME":"Ufa","COUNTRY":"Russia","CAPITAL":"N"}},
{"type":"Feature","geometry":{"type":"Point","coordinates":[25.27596664428711,54.688568115234375]},"properties":{"NAME":"Vilnius","COUNTRY":"Lithuania","CAPITAL":"Y"}},
{"type":"Feature","geometry":{"type":"Point","coordinates":[-5.909660339355469,54.5869255065918]},"properties":{"NAME":"Belfast","COUNTRY":"UK","CAPITAL":"N"}},
{"type":"Feature","geometry":{"type":"Point","coordinates":[18.624942779541016,54.36620330810547]},"properties":{"NAME":"Gdansk","COUNTRY":"Poland","CAPITAL":"N"}},
{"type":"Feature","geometry":{"type":"Point","coordinates":[27.5755672454834,53.89993667602539]},"properties":{"NAME":"Minsk","COUNTRY":"Byelarus","CAPITAL":"Y"}},
{"type":"Feature","geometry":{"type":"Point","coordinates":[-1.4975274801254272,53.808712005615234]},"properties":{"NAME":"Leeds","COUNTRY":"UK","CAPITAL":"N"}},
{"type":"Feature","geometry":{"type":"Point","coordinates":[10.027606010437012,53.57112121582031]},"properties":{"NAME":"Hamburg","COUNTRY":"Germany","CAPITAL":"N"}},
{"type":"Feature","geometry":{"type":"Point","coordinates":[-2.2617785930633545,53.47966384887695]},"properties":{"NAME":"Manchester","COUNTRY":"UK","CAPITAL":"N"}},
{"type":"Feature","geometry":{"type":"Point","coordinates":[-1.4629892110824585,53.37404251098633]},"properties":{"NAME":"Sheffield","COUNTRY":"UK","CAPITAL":"N"}},
{"type":"Feature","geometry":{"type":"Point","coordinates":[-6.2573466300964355,53.34156036376953]},"properties":{"NAME":"Dublin","COUNTRY":"Ireland","CAPITAL":"Y"}},
{"type":"Feature","geometry":{"type":"Point","coordinates":[50.0961799621582,53.13859558105469]},"properties":{"NAME":"Samara","COUNTRY":"Russia","CAPITAL":"N"}},
{"type":"Feature","geometry":{"type":"Point","coordinates":[8.857625961303711,53.08010482788086]},"properties":{"NAME":"Bremen","COUNTRY":"Germany","CAPITAL":"N"}},
{"type":"Feature","geometry":{"type":"Point","coordinates":[13.3275728225708,52.516273498535156]},"properties":{"NAME":"Berlin","COUNTRY":"Germany","CAPITAL":"Y"}},
{"type":"Feature","geometry":{"type":"Point","coordinates":[-1.8633477687835693,52.49275207519531]},"properties":{"NAME":"Birmingham","COUNTRY":"UK","CAPITAL":"N"}},
{"type":"Feature","geometry":{"type":"Point","coordinates":[4.894833087921143,52.373043060302734]},"properties":{"NAME":"Amsterdam","COUNTRY":"Netherlands","CAPITAL":"Y"}},
{"type":"Feature","geometry":{"type":"Point","coordinates":[104.24783325195312,52.31743240356445]},"properties":{"NAME":"Irkutsk","COUNTRY":"Russia","CAPITAL":"N"}},
{"type":"Feature","geometry":{"type":"Point","coordinates":[21.011878967285156,52.24494552612305]},"properties":{"NAME":"Warsaw","COUNTRY":"Poland","CAPITAL":"Y"}},
{"type":"Feature","geometry":{"type":"Point","coordinates":[4.485152244567871,51.925594329833984]},"properties":{"NAME":"Rotterdam","COUNTRY":"Netherlands","CAPITAL":"N"}},
{"type":"Feature","geometry":{"type":"Point","coordinates":[19.4764404296875,51.77790832519531]},"properties":{"NAME":"Lodz","COUNTRY":"Poland","CAPITAL":"N"}},
{"type":"Feature","geometry":{"type":"Point","coordinates":[7.466418266296387,51.51381301879883]},"properties":{"NAME":"Dortmund","COUNTRY":"Germany","CAPITAL":"N"}},
{"type":"Feature","geometry":{"type":"Point","coordinates":[6.775304317474365,51.48933792114258]},"properties":{"NAME":"Duisburg","COUNTRY":"Germany","CAPITAL":"N"}},
{"type":"Feature","geometry":{"type":"Point","coordinates":[-0.1779981255531311,51.487911224365234]},"properties":{"NAME":"London","COUNTRY":"UK","CAPITAL":"Y"}},
{"type":"Feature","geometry":{"type":"Point","coordinates":[7.122435092926025,51.354042053222656]},"properties":{"NAME":"Essen","COUNTRY":"Germany","CAPITAL":"N"}},
{"type":"Feature","geometry":{"type":"Point","coordinates":[12.39807415008545,51.34933090209961]},"properties":{"NAME":"Leipzig","COUNTRY":"Germany","CAPITAL":"N"}},
{"type":"Feature","geometry":{"type":"Point","coordinates":[4.42605447769165,51.20734786987305]},"properties":{"NAME":"Antwerpen","COUNTRY":"Belgium","CAPITAL":"N"}},
{"type":"Feature","geometry":{"type":"Point","coordinates":[17.038127899169922,51.12181854248047]},"properties":{"NAME":"Wroclaw","COUNTRY":"Poland","CAPITAL":"N"}},
{"type":"Feature","geometry":{"type":"Point","coordinates":[3.7362911701202393,51.04755401611328]},"properties":{"NAME":"Gent","COUNTRY":"Belgium","CAPITAL":"N"}},
{"type":"Feature","geometry":{"type":"Point","coordinates":[13.705357551574707,51.04568099975586]},"properties":{"NAME":"Dresden","COUNTRY":"Germany","CAPITAL":"N"}},
{"type":"Feature","geometry":{"type":"Point","coordinates":[-114.05000305175781,51.029998779296875]},"properties":{"NAME":"Calgary","COUNTRY":"Canada","CAPITAL":"N"}},
{"type":"Feature","geometry":{"type":"Point","coordinates":[6.934871673583984,50.942344665527344]},"properties":{"NAME":"Koln","COUNTRY":"Germany","CAPITAL":"N"}},
{"type":"Feature","geometry":{"type":"Point","coordinates":[4.367612361907959,50.8370475769043]},"properties":{"NAME":"Bruxelles","COUNTRY":"Belgium","CAPITAL":"Y"}},
{"type":"Feature","geometry":{"type":"Point","coordinates":[7.099818706512451,50.73455810546875]},"properties":{"NAME":"Bonn","COUNTRY":"Germany","CAPITAL":"N"}},
{"type":"Feature","geometry":{"type":"Point","coordinates":[3.062901258468628,50.632083892822266]},"properties":{"NAME":"Lille","COUNTRY":"France","CAPITAL":"N"}},
{"type":"Feature","geometry":{"type":"Point","coordinates":[5.5694355964660645,50.622528076171875]},"properties":{"NAME":"Liege","COUNTRY":"Belgium","CAPITAL":"N"}},
{"type":"Feature","geometry":{"type":"Point","coordinates":[30.502111434936523,50.448158264160156]},"properties":{"NAME":"Kiev","COUNTRY":"Ukraine","CAPITAL":"Y"}},
{"type":"Feature","geometry":{"type":"Point","coordinates":[8.668167114257812,50.12999725341797]},"properties":{"NAME":"Frankfurt am Main","COUNTRY":"Germany","CAPITAL":"N"}},
{"type":"Feature","geometry":{"type":"Point","coordinates":[14.456520080566406,50.10589599609375]},"properties":{"NAME":"Praha","COUNTRY":"Czech Repub","CAPITAL":"Y"}},
{"type":"Feature","geometry":{"type":"Point","coordinates":[19.945056915283203,50.06224060058594]},"properties":{"NAME":"Krakow","COUNTRY":"Poland","CAPITAL":"N"}},
{"type":"Feature","geometry":{"type":"Point","coordinates":[-97.12444305419922,49.92116928100586]},"properties":{"NAME":"Winnipeg","COUNTRY":"Canada","CAPITAL":"N"}},
{"type":"Feature","geometry":{"type":"Point","coordinates":[73.20263671875,49.879207611083984]},"properties":{"NAME":"Karaganda","COUNTRY":"Kazakhstan","CAPITAL":"N"}},
{"type":"Feature","geometry":{"type":"Point","coordinates":[24.034521102905273,49.837310791015625]},"properties":{"NAME":"Lvov","COUNTRY":"Ukraine","CAPITAL":"N"}},
{"type":"Feature","geometry":{"type":"Point","coordinates":[16.61624526977539,49.202980041503906]},"properties":{"NAME":"Brno","COUNTRY":"Czech Repub","CAPITAL":"N"}},
{"type":"Feature","geometry":{"type":"Point","coordinates":[2.432832717895508,48.881553649902344]},"properties":{"NAME":"Paris","COUNTRY":"France","CAPITAL":"Y"}},
{"type":"Feature","geometry":{"type":"Point","coordinates":[44.4836311340332,48.71024703979492]},"properties":{"NAME":"Volgograd","COUNTRY":"Russia","CAPITAL":"N"}},
{"type":"Feature","geometry":{"type":"Point","coordinates":[7.767994403839111,48.58343505859375]},"properties":{"NAME":"Strasbourg","COUNTRY":"France","CAPITAL":"N"}},
{"type":"Feature","geometry":{"type":"Point","coordinates":[14.293901443481445,48.2975959777832]},"properties":{"NAME":"Linz","COUNTRY":"Austria","CAPITAL":"N"}},
{"type":"Feature","geometry":{"type":"Point","coordinates":[16.320985794067383,48.202117919921875]},"properties":{"NAME":"Vienna","COUNTRY":"Austria","CAPITAL":"Y"}},
{"type":"Feature","geometry":{"type":"Point","coordinates":[11.542953491210938,48.14097595214844]},"properties":{"NAME":"Munchen","COUNTRY":"Germany","CAPITAL":"N"}},
{"type":"Feature","geometry":{"type":"Point","coordinates":[37.73705291748047,48.04014587402344]},"properties":{"NAME":"Donets'k","COUNTRY":"Ukraine","CAPITAL":"N"}},
{"type":"Feature","geometry":{"type":"Point","coordinates":[106.912353515625,47.92859649658203]},"properties":{"NAME":"Ulaanbaatar","COUNTRY":"Mongolia","CAPITAL":"Y"}},
{"type":"Feature","geometry":{"type":"Point","coordinates":[19.094249725341797,47.514625549316406]},"properties":{"NAME":"Budapest","COUNTRY":"Hungary","CAPITAL":"Y"}},
{"type":"Feature","geometry":{"type":"Point","coordinates":[123.9649658203125,47.3440055847168]},"properties":{"NAME":"Qiqihar","COUNTRY":"China","CAPITAL":"N"}},
{"type":"Feature","geometry":{"type":"Point","coordinates":[11.349982261657715,47.26546096801758]},"properties":{"NAME":"Innsbruck","COUNTRY":"Austria","CAPITAL":"N"}},
{"type":"Feature","geometry":{"type":"Point","coordinates":[39.68803787231445,47.23209762573242]},"properties":{"NAME":"Rostov-na-Donu","COUNTRY":"Russia","CAPITAL":"N"}},
{"type":"Feature","geometry":{"type":"Point","coordinates":[-1.5615612268447876,47.21943283081055]},"properties":{"NAME":"Nantes","COUNTRY":"France","CAPITAL":"N"}},
{"type":"Feature","geometry":{"type":"Point","coordinates":[15.431100845336914,47.06492233276367]},"properties":{"NAME":"Graz","COUNTRY":"Austria","CAPITAL":"N"}},
{"type":"Feature","geometry":{"type":"Point","coordinates":[7.445736408233643,46.94820785522461]},"properties":{"NAME":"Bern","COUNTRY":"Switzerland","CAPITAL":"Y"}},
{"type":"Feature","geometry":{"type":"Point","coordinates":[-71.24493408203125,46.80207443237305]},"properties":{"NAME":"Quebec","COUNTRY":"Canada","CAPITAL":"N"}},
{"type":"Feature","geometry":{"type":"Point","coordinates":[30.683937072753906,46.572200775146484]},"properties":{"NAME":"Odessa","COUNTRY":"Ukraine","CAPITAL":"N"}},
{"type":"Feature","geometry":{"type":"Point","coordinates":[126.62263488769531,45.755218505859375]},"properties":{"NAME":"Harbin","COUNTRY":"China","CAPITAL":"N"}},
{"type":"Feature","geometry":{"type":"Point","coordinates":[4.855400562286377,45.7470817565918]},"properties":{"NAME":"Lyon","COUNTRY":"France","CAPITAL":"N"}},
{"type":"Feature","geometry":{"type":"Point","coordinates":[-73.65353393554688,45.541015625]},"properties":{"NAME":"Montreal","COUNTRY":"Canada","CAPITAL":"N"}},
{"type":"Feature","geometry":{"type":"Point","coordinates":[9.19046401977539,45.47338104248047]},"properties":{"NAME":"Milano","COUNTRY":"Italy","CAPITAL":"N"}},
{"type":"Feature","geometry":{"type":"Point","coordinates":[12.370719909667969,45.424774169921875]},"properties":{"NAME":"Venezia","COUNTRY":"Italy","CAPITAL":"N"}},
{"type":"Feature","geometry":{"type":"Point","coordinates":[-75.65074920654297,45.37421798706055]},"properties":{"NAME":"Ottawa","COUNTRY":"Canada","CAPITAL":"Y"}},
{"type":"Feature","geometry":{"type":"Point","coordinates":[7.666426181793213,45.07487487792969]},"properties":{"NAME":"Torino","COUNTRY":"Italy","CAPITAL":"N"}},
{"type":"Feature","geometry":{"type":"Point","coordinates":[-93.30779266357422,44.92418670654297]},"properties":{"NAME":"Minneapolis","COUNTRY":"US","CAPITAL":"N"}},
{"type":"Feature","geometry":{"type":"Point","coordinates":[-0.5994987487792969,44.84147262573242]},"properties":{"NAME":"Bordeaux","COUNTRY":"France","CAPITAL":"N"}},
{"type":"Feature","geometry":{"type":"Point","coordinates":[20.412555694580078,44.7996826171875]},"properties":{"NAME":"Beograd","COUNTRY":"Serbia","CAPITAL":"Y"}},
{"type":"Feature","geometry":{"type":"Point","coordinates":[26.122976303100586,44.430484771728516]},"properties":{"NAME":"Bucuresti","COUNTRY":"Romania","CAPITAL":"Y"}},
{"type":"Feature","geometry":{"type":"Point","coordinates":[125.31265258789062,43.881317138671875]},"properties":{"NAME":"Changchung","COUNTRY":"China","CAPITAL":"N"}},
{"type":"Feature","geometry":{"type":"Point","coordinates":[126.56706237792969,43.850215911865234]},"properties":{"NAME":"Jilin","COUNTRY":"China","CAPITAL":"N"}},
{"type":"Feature","geometry":{"type":"Point","coordinates":[87.58651733398438,43.78266525268555]},"properties":{"NAME":"Urumqi","COUNTRY":"China","CAPITAL":"N"}},
{"type":"Feature","geometry":{"type":"Point","coordinates":[11.207745552062988,43.78157424926758]},"properties":{"NAME":"Firenze","COUNTRY":"Italy","CAPITAL":"N"}},
{"type":"Feature","geometry":{"type":"Point","coordinates":[-79.41263580322266,43.720767974853516]},"properties":{"NAME":"Toronto","COUNTRY":"Canada","CAPITAL":"N"}},
{"type":"Feature","geometry":{"type":"Point","coordinates":[1.4379830360412598,43.59996032714844]},"properties":{"NAME":"Toulouse","COUNTRY":"France","CAPITAL":"N"}},
{"type":"Feature","geometry":{"type":"Point","coordinates":[-2.973783254623413,43.28215789794922]},"properties":{"NAME":"Bilbao","COUNTRY":"Spain","CAPITAL":"N"}},
{"type":"Feature","geometry":{"type":"Point","coordinates":[76.91262817382812,43.255062103271484]},"properties":{"NAME":"Almaty","COUNTRY":"Kazakhstan","CAPITAL":"Y"}},
{"type":"Feature","geometry":{"type":"Point","coordinates":[-77.63561248779297,43.21046447753906]},"properties":{"NAME":"Rochester","COUNTRY":"US","CAPITAL":"N"}},
{"type":"Feature","geometry":{"type":"Point","coordinates":[-87.99073791503906,43.06794738769531]},"properties":{"NAME":"Milwaukee","COUNTRY":"US","CAPITAL":"N"}},
{"type":"Feature","geometry":{"type":"Point","coordinates":[141.34547424316406,43.05525207519531]},"properties":{"NAME":"Sapporo","COUNTRY":"Japan","CAPITAL":"N"}},
{"type":"Feature","geometry":{"type":"Point","coordinates":[-78.84843444824219,42.89866256713867]},"properties":{"NAME":"Buffalo","COUNTRY":"US","CAPITAL":"N"}},
{"type":"Feature","geometry":{"type":"Point","coordinates":[23.331871032714844,42.7072639465332]},"properties":{"NAME":"Sofiya","COUNTRY":"Bulgaria","CAPITAL":"Y"}},
{"type":"Feature","geometry":{"type":"Point","coordinates":[-83.07892608642578,42.39431381225586]},"properties":{"NAME":"Detroit","COUNTRY":"US","CAPITAL":"N"}},
{"type":"Feature","geometry":{"type":"Point","coordinates":[-71.10258483886719,42.37529754638672]},"properties":{"NAME":"Boston","COUNTRY":"US","CAPITAL":"N"}},
{"type":"Feature","geometry":{"type":"Point","coordinates":[123.90557098388672,41.85915756225586]},"properties":{"NAME":"Fushun","COUNTRY":"China","CAPITAL":"N"}},
{"type":"Feature","geometry":{"type":"Point","coordinates":[-87.64130401611328,41.82654571533203]},"properties":{"NAME":"Chicago","COUNTRY":"US","CAPITAL":"N"}},
{"type":"Feature","geometry":{"type":"Point","coordinates":[123.383056640625,41.802162170410156]},"properties":{"NAME":"Shenyang","COUNTRY":"China","CAPITAL":"N"}},
{"type":"Feature","geometry":{"type":"Point","coordinates":[44.78312683105469,41.72180938720703]},"properties":{"NAME":"T'Bilisi","COUNTRY":"Georgia","CAPITAL":"Y"}},
{"type":"Feature","geometry":{"type":"Point","coordinates":[-0.8782050609588623,41.65126419067383]},"properties":{"NAME":"Zaragoza","COUNTRY":"Spain","CAPITAL":"N"}},
{"type":"Feature","geometry":{"type":"Point","coordinates":[-81.72750854492188,41.390716552734375]},"properties":{"NAME":"Cleveland","COUNTRY":"US","CAPITAL":"N"}},
{"type":"Feature","geometry":{"type":"Point","coordinates":[19.831804275512695,41.3316535949707]},"properties":{"NAME":"Tirane","COUNTRY":"Albania","CAPITAL":"Y"}},
{"type":"Feature","geometry":{"type":"Point","coordinates":[122.97701263427734,41.1152458190918]},"properties":{"NAME":"Anshan","COUNTRY":"China","CAPITAL":"N"}},
{"type":"Feature","geometry":{"type":"Point","coordinates":[29.00606918334961,41.065956115722656]},"properties":{"NAME":"Istanbul","COUNTRY":"Turkey","CAPITAL":"N"}},
{"type":"Feature","geometry":{"type":"Point","coordinates":[-111.89217376708984,40.69392013549805]},"properties":{"NAME":"Salt Lake City","COUNTRY":"US","CAPITAL":"N"}},
{"type":"Feature","geometry":{"type":"Point","coordinates":[-79.99708557128906,40.4972038269043]},"properties":{"NAME":"Pittsburgh","COUNTRY":"US","CAPITAL":"N"}},
{"type":"Feature","geometry":{"type":"Point","coordinates":[-3.690969467163086,40.44221878051758]},"properties":{"NAME":"Madrid","COUNTRY":"Spain","CAPITAL":"Y"}},
{"type":"Feature","geometry":{"type":"Point","coordinates":[49.81623840332031,40.32429885864258]},"properties":{"NAME":"Baku","COUNTRY":"Azerbaijan","CAPITAL":"Y"}},
{"type":"Feature","geometry":{"type":"Point","coordinates":[44.53266906738281,40.20802307128906]},"properties":{"NAME":"Yerevan","COUNTRY":"Armenia","CAPITAL":"Y"}},
{"type":"Feature","geometry":{"type":"Point","coordinates":[-82.99270629882812,40.04464340209961]},"properties":{"NAME":"Columbus","COUNTRY":"US","CAPITAL":"N"}},
{"type":"Feature","geometry":{"type":"Point","coordinates":[32.853271484375,39.92932891845703]},"properties":{"NAME":"Ankara","COUNTRY":"Turkey","CAPITAL":"Y"}},
{"type":"Feature","geometry":{"type":"Point","coordinates":[-75.21822357177734,39.92755126953125]},"properties":{"NAME":"Philadelphia","COUNTRY":"US","CAPITAL":"N"}},
{"type":"Feature","geometry":{"type":"Point","coordinates":[116.3880386352539,39.906192779541016]},"properties":{"NAME":"Beijing","COUNTRY":"China","CAPITAL":"Y"}},
{"type":"Feature","geometry":{"type":"Point","coordinates":[41.29182434082031,39.90445327758789]},"properties":{"NAME":"Erzurum","COUNTRY":"Turkey","CAPITAL":"N"}},
{"type":"Feature","geometry":{"type":"Point","coordinates":[66.94760131835938,39.6575813293457]},"properties":{"NAME":"Samarkand","COUNTRY":"Uzbekistan","CAPITAL":"N"}},
{"type":"Feature","geometry":{"type":"Point","coordinates":[118.18021392822266,39.61544418334961]},"properties":{"NAME":"Tangshan","COUNTRY":"China","CAPITAL":"N"}},
{"type":"Feature","geometry":{"type":"Point","coordinates":[-0.3674009442329407,39.470916748046875]},"properties":{"NAME":"Valencia","COUNTRY":"Spain","CAPITAL":"N"}},
{"type":"Feature","geometry":{"type":"Point","coordinates":[-76.61837768554688,39.32188415527344]},"properties":{"NAME":"Baltimore","COUNTRY":"US","CAPITAL":"N"}},
{"type":"Feature","geometry":{"type":"Point","coordinates":[9.108909606933594,39.22514343261719]},"properties":{"NAME":"Cagliari","COUNTRY":"Italy","CAPITAL":"N"}},
{"type":"Feature","geometry":{"type":"Point","coordinates":[-84.47702026367188,39.14801025390625]},"properties":{"NAME":"Cincinnati","COUNTRY":"US","CAPITAL":"N"}},
{"type":"Feature","geometry":{"type":"Point","coordinates":[117.18522644042969,39.128414154052734]},"properties":{"NAME":"Tianjin","COUNTRY":"China","CAPITAL":"N"}},
{"type":"Feature","geometry":{"type":"Point","coordinates":[125.75751495361328,39.02851486206055]},"properties":{"NAME":"Pyongyang","COUNTRY":"Korea D P Rp","CAPITAL":"Y"}},
{"type":"Feature","geometry":{"type":"Point","coordinates":[-94.6265640258789,38.994117736816406]},"properties":{"NAME":"Kansas City","COUNTRY":"US","CAPITAL":"N"}},
{"type":"Feature","geometry":{"type":"Point","coordinates":[-76.9538345336914,38.89091110229492]},"properties":{"NAME":"Washington D.C.","COUNTRY":"US","CAPITAL":"Y"}},
{"type":"Feature","geometry":{"type":"Point","coordinates":[-90.34197998046875,38.638885498046875]},"properties":{"NAME":"St. Louis","COUNTRY":"US","CAPITAL":"N"}},
{"type":"Feature","geometry":{"type":"Point","coordinates":[-121.4227066040039,38.5670166015625]},"properties":{"NAME":"Sacramento","COUNTRY":"US","CAPITAL":"N"}},
{"type":"Feature","geometry":{"type":"Point","coordinates":[46.29011917114258,38.08097839355469]},"properties":{"NAME":"Tabriz","COUNTRY":"Iran","CAPITAL":"N"}},
{"type":"Feature","geometry":{"type":"Point","coordinates":[114.55970764160156,38.07709503173828]},"properties":{"NAME":"Shijiazhuang","COUNTRY":"China","CAPITAL":"N"}},
{"type":"Feature","geometry":{"type":"Point","coordinates":[58.390132904052734,37.95042037963867]},"properties":{"NAME":"Ashkhabad","COUNTRY":"Turkmenistan","CAPITAL":"Y"}},
{"type":"Feature","geometry":{"type":"Point","coordinates":[112.55170440673828,37.8930549621582]},"properties":{"NAME":"Taiyuan","COUNTRY":"China","CAPITAL":"N"}},
{"type":"Feature","geometry":{"type":"Point","coordinates":[126.93524932861328,37.54235076904297]},"properties":{"NAME":"Seoul","COUNTRY":"Korea Rep","CAPITAL":"Y"}},
{"type":"Feature","geometry":{"type":"Point","coordinates":[-5.970831871032715,37.37264633178711]},"properties":{"NAME":"Sevilla","COUNTRY":"Spain","CAPITAL":"N"}},
{"type":"Feature","geometry":{"type":"Point","coordinates":[35.324363708496094,36.99998092651367]},"properties":{"NAME":"Adana","COUNTRY":"Turkey","CAPITAL":"N"}},
{"type":"Feature","geometry":{"type":"Point","coordinates":[-76.26856994628906,36.87929153442383]},"properties":{"NAME":"Norfolk","COUNTRY":"US","CAPITAL":"N"}},
{"type":"Feature","geometry":{"type":"Point","coordinates":[10.165960311889648,36.81881332397461]},"properties":{"NAME":"Tunis","COUNTRY":"Tunisia","CAPITAL":"Y"}},
{"type":"Feature","geometry":{"type":"Point","coordinates":[118.06204223632812,36.79149627685547]},"properties":{"NAME":"Zibo","COUNTRY":"China","CAPITAL":"N"}},
{"type":"Feature","geometry":{"type":"Point","coordinates":[116.96705627441406,36.65553665161133]},"properties":{"NAME":"Jinan","COUNTRY":"China","CAPITAL":"N"}},
{"type":"Feature","geometry":{"type":"Point","coordinates":[43.13712692260742,36.335567474365234]},"properties":{"NAME":"Mosul","COUNTRY":"Iraq","CAPITAL":"N"}},
{"type":"Feature","geometry":{"type":"Point","coordinates":[59.59685134887695,36.290069580078125]},"properties":{"NAME":"Mashhad","COUNTRY":"Iran","CAPITAL":"N"}},
{"type":"Feature","geometry":{"type":"Point","coordinates":[37.15928268432617,36.215545654296875]},"properties":{"NAME":"Aleppo","COUNTRY":"Syria","CAPITAL":"N"}},
{"type":"Feature","geometry":{"type":"Point","coordinates":[103.59959411621094,36.11343002319336]},"properties":{"NAME":"Lanzhou","COUNTRY":"China","CAPITAL":"N"}},
{"type":"Feature","geometry":{"type":"Point","coordinates":[128.5913848876953,35.8635368347168]},"properties":{"NAME":"Taegu","COUNTRY":"Korea Rep","CAPITAL":"N"}},
{"type":"Feature","geometry":{"type":"Point","coordinates":[51.44765090942383,35.77447509765625]},"properties":{"NAME":"Tehran","COUNTRY":"Iran","CAPITAL":"Y"}},
{"type":"Feature","geometry":{"type":"Point","coordinates":[139.80918884277344,35.68305587768555]},"properties":{"NAME":"Tokyo","COUNTRY":"Japan","CAPITAL":"Y"}},
{"type":"Feature","geometry":{"type":"Point","coordinates":[139.7272186279297,35.50457000732422]},"properties":{"NAME":"Kawasaki","COUNTRY":"Japan","CAPITAL":"N"}},
{"type":"Feature","geometry":{"type":"Point","coordinates":[-97.5302963256836,35.48958969116211]},"properties":{"NAME":"Oklahoma City","COUNTRY":"US","CAPITAL":"N"}},
{"type":"Feature","geometry":{"type":"Point","coordinates":[139.61965942382812,35.43738555908203]},"properties":{"NAME":"Yokohama","COUNTRY":"Japan","CAPITAL":"N"}},
{"type":"Feature","geometry":{"type":"Point","coordinates":[-80.83568572998047,35.205814361572266]},"properties":{"NAME":"Charlotte","COUNTRY":"US","CAPITAL":"N"}},
{"type":"Feature","geometry":{"type":"Point","coordinates":[129.0546875,35.157867431640625]},"properties":{"NAME":"Pusan","COUNTRY":"Korea Rep","CAPITAL":"N"}},
{"type":"Feature","geometry":{"type":"Point","coordinates":[136.92059326171875,35.15492248535156]},"properties":{"NAME":"Nagoya","COUNTRY":"Japan","CAPITAL":"N"}},
{"type":"Feature","geometry":{"type":"Point","coordinates":[-90.00032806396484,35.11472702026367]},"properties":{"NAME":"Memphis","COUNTRY":"US","CAPITAL":"N"}},
{"type":"Feature","geometry":{"type":"Point","coordinates":[135.75482177734375,35.00912857055664]},"properties":{"NAME":"Kyoto","COUNTRY":"Japan","CAPITAL":"N"}},
{"type":"Feature","geometry":{"type":"Point","coordinates":[113.64177703857422,34.75768280029297]},"properties":{"NAME":"Zhengzhou","COUNTRY":"China","CAPITAL":"N"}},
{"type":"Feature","geometry":{"type":"Point","coordinates":[36.71817398071289,34.7338752746582]},"properties":{"NAME":"Homs","COUNTRY":"Syria","CAPITAL":"N"}},
{"type":"Feature","geometry":{"type":"Point","coordinates":[112.36123657226562,34.671348571777344]},"properties":{"NAME":"Luoyang","COUNTRY":"China","CAPITAL":"N"}},
{"type":"Feature","geometry":{"type":"Point","coordinates":[135.5191192626953,34.635528564453125]},"properties":{"NAME":"Osaka","COUNTRY":"Japan","CAPITAL":"N"}},
{"type":"Feature","geometry":{"type":"Point","coordinates":[69.13675689697266,34.530906677246094]},"properties":{"NAME":"Kabul","COUNTRY":"Afghanistan","CAPITAL":"Y"}},
{"type":"Feature","geometry":{"type":"Point","coordinates":[132.4447784423828,34.37755584716797]},"properties":{"NAME":"Hiroshima","COUNTRY":"Japan","CAPITAL":"N"}},
{"type":"Feature","geometry":{"type":"Point","coordinates":[108.88336181640625,34.26569747924805]},"properties":{"NAME":"Xian","COUNTRY":"China","CAPITAL":"N"}},
{"type":"Feature","geometry":{"type":"Point","coordinates":[-4.995547771453857,34.0435676574707]},"properties":{"NAME":"Fes","COUNTRY":"Morocco","CAPITAL":"N"}},
{"type":"Feature","geometry":{"type":"Point","coordinates":[-84.34922790527344,33.79570007324219]},"properties":{"NAME":"Atlanta","COUNTRY":"US","CAPITAL":"N"}},
{"type":"Feature","geometry":{"type":"Point","coordinates":[73.060546875,33.7181510925293]},"properties":{"NAME":"Islamabad","COUNTRY":"Pakistan","CAPITAL":"Y"}},
{"type":"Feature","geometry":{"type":"Point","coordinates":[73.04374694824219,33.605804443359375]},"properties":{"NAME":"Rawalpindi","COUNTRY":"Pakistan","CAPITAL":"N"}},
{"type":"Feature","geometry":{"type":"Point","coordinates":[36.313453674316406,33.51930236816406]},"properties":{"NAME":"Damascus","COUNTRY":"Syria","CAPITAL":"Y"}},
{"type":"Feature","geometry":{"type":"Point","coordinates":[-112.11026000976562,33.5090217590332]},"properties":{"NAME":"Phoenix","COUNTRY":"US","CAPITAL":"N"}},
{"type":"Feature","geometry":{"type":"Point","coordinates":[44.39783477783203,33.33403778076172]},"properties":{"NAME":"Baghdad","COUNTRY":"Iraq","CAPITAL":"Y"}},
{"type":"Feature","geometry":{"type":"Point","coordinates":[-96.66368865966797,32.763729095458984]},"properties":{"NAME":"Dallas","COUNTRY":"US","CAPITAL":"N"}},
{"type":"Feature","geometry":{"type":"Point","coordinates":[51.6791877746582,32.651390075683594]},"properties":{"NAME":"Esfahan","COUNTRY":"Iran","CAPITAL":"N"}},
{"type":"Feature","geometry":{"type":"Point","coordinates":[118.76890563964844,32.04836654663086]},"properties":{"NAME":"Nanjing","COUNTRY":"China","CAPITAL":"N"}},
{"type":"Feature","geometry":{"type":"Point","coordinates":[35.93290710449219,31.949382781982422]},"properties":{"NAME":"Amman","COUNTRY":"Jordan","CAPITAL":"Y"}},
{"type":"Feature","geometry":{"type":"Point","coordinates":[74.87155151367188,31.630889892578125]},"properties":{"NAME":"Amritsar","COUNTRY":"India","CAPITAL":"N"}},
{"type":"Feature","geometry":{"type":"Point","coordinates":[74.3406753540039,31.545053482055664]},"properties":{"NAME":"Lahore","COUNTRY":"Pakistan","CAPITAL":"N"}},
{"type":"Feature","geometry":{"type":"Point","coordinates":[73.08345794677734,31.408950805664062]},"properties":{"NAME":"Faisalabad","COUNTRY":"Pakistan","CAPITAL":"N"}},
{"type":"Feature","geometry":{"type":"Point","coordinates":[121.47265625,31.24786949157715]},"properties":{"NAME":"Shanghai","COUNTRY":"China","CAPITAL":"N"}},
{"type":"Feature","geometry":{"type":"Point","coordinates":[104.07127380371094,30.670068740844727]},"properties":{"NAME":"Chengdu","COUNTRY":"China","CAPITAL":"N"}},
{"type":"Feature","geometry":{"type":"Point","coordinates":[114.27922058105469,30.572498321533203]},"properties":{"NAME":"Wuhan","COUNTRY":"China","CAPITAL":"N"}},
{"type":"Feature","geometry":{"type":"Point","coordinates":[47.7608642578125,30.503490447998047]},"properties":{"NAME":"Al Basra","COUNTRY":"Iraq","CAPITAL":"N"}},
{"type":"Feature","geometry":{"type":"Point","coordinates":[120.16507720947266,30.25262451171875]},"properties":{"NAME":"Hangzhou","COUNTRY":"China","CAPITAL":"N"}},
{"type":"Feature","geometry":{"type":"Point","coordinates":[31.250797271728516,30.077911376953125]},"properties":{"NAME":"Cairo","COUNTRY":"Egypt","CAPITAL":"Y"}},
{"type":"Feature","geometry":{"type":"Point","coordinates":[-90.09868621826172,29.956378936767578]},"properties":{"NAME":"New Orleans","COUNTRY":"US","CAPITAL":"N"}},
{"type":"Feature","geometry":{"type":"Point","coordinates":[-95.40711212158203,29.77182960510254]},"properties":{"NAME":"Houston","COUNTRY":"US","CAPITAL":"N"}},
{"type":"Feature","geometry":{"type":"Point","coordinates":[91.13208770751953,29.65070343017578]},"properties":{"NAME":"Lhasa","COUNTRY":"China","CAPITAL":"N"}},
{"type":"Feature","geometry":{"type":"Point","coordinates":[106.52268981933594,29.544103622436523]},"properties":{"NAME":"Chongqing","COUNTRY":"China","CAPITAL":"N"}},
{"type":"Feature","geometry":{"type":"Point","coordinates":[-98.52457427978516,29.429922103881836]},"properties":{"NAME":"San Antonio","COUNTRY":"US","CAPITAL":"N"}},
{"type":"Feature","geometry":{"type":"Point","coordinates":[115.88941192626953,28.671239852905273]},"properties":{"NAME":"Nanchang","COUNTRY":"China","CAPITAL":"N"}},
{"type":"Feature","geometry":{"type":"Point","coordinates":[77.21675109863281,28.5687255859375]},"properties":{"NAME":"New Delhi","COUNTRY":"India","CAPITAL":"Y"}},
{"type":"Feature","geometry":{"type":"Point","coordinates":[77.22437286376953,28.526458740234375]},"properties":{"NAME":"Delhi","COUNTRY":"India","CAPITAL":"N"}},
{"type":"Feature","geometry":{"type":"Point","coordinates":[112.9684829711914,28.197641372680664]},"properties":{"NAME":"Changsha","COUNTRY":"China","CAPITAL":"N"}},
{"type":"Feature","geometry":{"type":"Point","coordinates":[85.31295013427734,27.712017059326172]},"properties":{"NAME":"Kathmandu","COUNTRY":"Nepal","CAPITAL":"Y"}},
{"type":"Feature","geometry":{"type":"Point","coordinates":[89.66732788085938,27.44260597229004]},"properties":{"NAME":"Thimbu","COUNTRY":"Bhutan","CAPITAL":"Y"}},
{"type":"Feature","geometry":{"type":"Point","coordinates":[75.80127716064453,26.905113220214844]},"properties":{"NAME":"Jaipur","COUNTRY":"India","CAPITAL":"N"}},
{"type":"Feature","geometry":{"type":"Point","coordinates":[80.91972351074219,26.849428176879883]},"properties":{"NAME":"Lucknow","COUNTRY":"India","CAPITAL":"N"}},
{"type":"Feature","geometry":{"type":"Point","coordinates":[106.70030212402344,26.571941375732422]},"properties":{"NAME":"Guiyang","COUNTRY":"China","CAPITAL":"N"}},
{"type":"Feature","geometry":{"type":"Point","coordinates":[80.31786346435547,26.45783042907715]},"properties":{"NAME":"Kanpur","COUNTRY":"India","CAPITAL":"N"}},
{"type":"Feature","geometry":{"type":"Point","coordinates":[119.30352020263672,26.071016311645508]},"properties":{"NAME":"Fuzhou","COUNTRY":"China","CAPITAL":"N"}},
{"type":"Feature","geometry":{"type":"Point","coordinates":[-80.27021789550781,25.832130432128906]},"properties":{"NAME":"Miami","COUNTRY":"US","CAPITAL":"N"}},
{"type":"Feature","geometry":{"type":"Point","coordinates":[-100.31708526611328,25.677352905273438]},"properties":{"NAME":"Monterrey","COUNTRY":"Mexico","CAPITAL":"N"}},
{"type":"Feature","geometry":{"type":"Point","coordinates":[85.13534545898438,25.6138973236084]},"properties":{"NAME":"Patna","COUNTRY":"India","CAPITAL":"N"}},
{"type":"Feature","geometry":{"type":"Point","coordinates":[68.36647033691406,25.380186080932617]},"properties":{"NAME":"Hyderabad","COUNTRY":"Pakistan","CAPITAL":"N"}},
{"type":"Feature","geometry":{"type":"Point","coordinates":[82.95633697509766,25.282011032104492]},"properties":{"NAME":"Benares","COUNTRY":"India","CAPITAL":"N"}},
{"type":"Feature","geometry":{"type":"Point","coordinates":[51.49723434448242,25.203641891479492]},"properties":{"NAME":"Doha","COUNTRY":"Qatar","CAPITAL":"Y"}},
{"type":"Feature","geometry":{"type":"Point","coordinates":[102.7021255493164,25.05103302001953]},"properties":{"NAME":"Kunming","COUNTRY":"China","CAPITAL":"N"}},
{"type":"Feature","geometry":{"type":"Point","coordinates":[121.50672912597656,25.035091400146484]},"properties":{"NAME":"Taipei","COUNTRY":"Taiwan","CAPITAL":"Y"}},
{"type":"Feature","geometry":{"type":"Point","coordinates":[120.67028045654297,24.14364242553711]},"properties":{"NAME":"T`ai-chung","COUNTRY":"Taiwan","CAPITAL":"N"}},
{"type":"Feature","geometry":{"type":"Point","coordinates":[90.40714263916016,23.709918975830078]},"properties":{"NAME":"Dhaka","COUNTRY":"Bangladesh","CAPITAL":"Y"}},
{"type":"Feature","geometry":{"type":"Point","coordinates":[113.29360961914062,23.096195220947266]},"properties":{"NAME":"Guangzhou","COUNTRY":"China","CAPITAL":"N"}},
{"type":"Feature","geometry":{"type":"Point","coordinates":[72.56686401367188,23.039791107177734]},"properties":{"NAME":"Ahmadabad","COUNTRY":"India","CAPITAL":"N"}},
{"type":"Feature","geometry":{"type":"Point","coordinates":[89.55824279785156,22.842647552490234]},"properties":{"NAME":"Khulna","COUNTRY":"Bangladesh","CAPITAL":"N"}},
{"type":"Feature","geometry":{"type":"Point","coordinates":[88.33422088623047,22.543537139892578]},"properties":{"NAME":"Calcutta","COUNTRY":"India","CAPITAL":"N"}},
{"type":"Feature","geometry":{"type":"Point","coordinates":[-97.8426284790039,22.243234634399414]},"properties":{"NAME":"Tampico","COUNTRY":"Mexico","CAPITAL":"N"}},
{"type":"Feature","geometry":{"type":"Point","coordinates":[96.08415222167969,21.97594451904297]},"properties":{"NAME":"Mandalay","COUNTRY":"Burma","CAPITAL":"N"}},
{"type":"Feature","geometry":{"type":"Point","coordinates":[39.81483840942383,21.42738151550293]},"properties":{"NAME":"Mecca","COUNTRY":"Saudi Arabia","CAPITAL":"N"}},
{"type":"Feature","geometry":{"type":"Point","coordinates":[79.089111328125,21.155757904052734]},"properties":{"NAME":"Nagpur","COUNTRY":"India","CAPITAL":"N"}},
{"type":"Feature","geometry":{"type":"Point","coordinates":[105.81990814208984,21.03194808959961]},"properties":{"NAME":"Hanoi","COUNTRY":"Vietnam","CAPITAL":"Y"}},
{"type":"Feature","geometry":{"type":"Point","coordinates":[106.67979431152344,20.861358642578125]},"properties":{"NAME":"Haiphong","COUNTRY":"Vietnam","CAPITAL":"N"}},
{"type":"Feature","geometry":{"type":"Point","coordinates":[-89.55286407470703,20.821868896484375]},"properties":{"NAME":"Merida","COUNTRY":"Mexico","CAPITAL":"N"}},
{"type":"Feature","geometry":{"type":"Point","coordinates":[-103.34379577636719,20.67359161376953]},"properties":{"NAME":"Guadalajara","COUNTRY":"Mexico","CAPITAL":"N"}},
{"type":"Feature","geometry":{"type":"Point","coordinates":[37.219688415527344,19.615713119506836]},"properties":{"NAME":"Bur Sudan","COUNTRY":"Sudan","CAPITAL":"N"}},
{"type":"Feature","geometry":{"type":"Point","coordinates":[-99.12757110595703,19.427045822143555]},"properties":{"NAME":"Mexico City","COUNTRY":"Mexico","CAPITAL":"Y"}},
{"type":"Feature","geometry":{"type":"Point","coordinates":[-98.19294738769531,19.04863166809082]},"properties":{"NAME":"Puebla de Zaragoza","COUNTRY":"Mexico","CAPITAL":"N"}},
{"type":"Feature","geometry":{"type":"Point","coordinates":[73.8522720336914,18.535747528076172]},"properties":{"NAME":"Pune","COUNTRY":"India","CAPITAL":"N"}},
{"type":"Feature","geometry":{"type":"Point","coordinates":[-72.34310913085938,18.5266170501709]},"properties":{"NAME":"Port-au-Prince","COUNTRY":"Haiti","CAPITAL":"Y"}},
{"type":"Feature","geometry":{"type":"Point","coordinates":[-66.08175659179688,18.400615692138672]},"properties":{"NAME":"San Juan","COUNTRY":"Puerto Rico","CAPITAL":"Y"}},
{"type":"Feature","geometry":{"type":"Point","coordinates":[-76.79730224609375,18.01571273803711]},"properties":{"NAME":"Kingston","COUNTRY":"Jamaica","CAPITAL":"Y"}},
{"type":"Feature","geometry":{"type":"Point","coordinates":[78.48503112792969,17.394546508789062]},"properties":{"NAME":"Hyderabad","COUNTRY":"India","CAPITAL":"N"}},
{"type":"Feature","geometry":{"type":"Point","coordinates":[96.12489318847656,16.872222900390625]},"properties":{"NAME":"Rangoon","COUNTRY":"Burma","CAPITAL":"Y"}},
{"type":"Feature","geometry":{"type":"Point","coordinates":[44.209503173828125,15.361444473266602]},"properties":{"NAME":"Sanaa","COUNTRY":"Yemen","CAPITAL":"Y"}},
{"type":"Feature","geometry":{"type":"Point","coordinates":[-90.52490234375,14.61800765991211]},"properties":{"NAME":"Guatemala","COUNTRY":"Guatemala","CAPITAL":"Y"}},
{"type":"Feature","geometry":{"type":"Point","coordinates":[-87.20309448242188,14.099050521850586]},"properties":{"NAME":"Tegucigalpa","COUNTRY":"Honduras","CAPITAL":"Y"}},
{"type":"Feature","geometry":{"type":"Point","coordinates":[100.55266571044922,13.74557113647461]},"properties":{"NAME":"Bangkok","COUNTRY":"Thailand","CAPITAL":"Y"}},
{"type":"Feature","geometry":{"type":"Point","coordinates":[-89.20023345947266,13.701412200927734]},"properties":{"NAME":"San Salvador","COUNTRY":"El Salvador","CAPITAL":"Y"}},
{"type":"Feature","geometry":{"type":"Point","coordinates":[2.0834498405456543,13.604543685913086]},"properties":{"NAME":"Niamey","COUNTRY":"Niger","CAPITAL":"Y"}},
{"type":"Feature","geometry":{"type":"Point","coordinates":[80.2478256225586,13.061503410339355]},"properties":{"NAME":"Madras","COUNTRY":"India","CAPITAL":"N"}},
{"type":"Feature","geometry":{"type":"Point","coordinates":[77.58773040771484,12.974750518798828]},"properties":{"NAME":"Bangalore","COUNTRY":"India","CAPITAL":"N"}},
{"type":"Feature","geometry":{"type":"Point","coordinates":[-7.986481666564941,12.652950286865234]},"properties":{"NAME":"Bamako","COUNTRY":"Mali","CAPITAL":"Y"}},
{"type":"Feature","geometry":{"type":"Point","coordinates":[-86.27303314208984,12.151473045349121]},"properties":{"NAME":"Managua","COUNTRY":"Nicaragua","CAPITAL":"Y"}},
{"type":"Feature","geometry":{"type":"Point","coordinates":[104.91319274902344,11.564736366271973]},"properties":{"NAME":"Phnom Penh","COUNTRY":"Cambodia","CAPITAL":"Y"}},
{"type":"Feature","geometry":{"type":"Point","coordinates":[106.6624526977539,10.75918197631836]},"properties":{"NAME":"Ho Chi Minh City","COUNTRY":"Vietnam","CAPITAL":"N"}},
{"type":"Feature","geometry":{"type":"Point","coordinates":[-71.63714599609375,10.64504337310791]},"properties":{"NAME":"Maracaibo","COUNTRY":"Venezuela","CAPITAL":"N"}},
{"type":"Feature","geometry":{"type":"Point","coordinates":[-66.89828491210938,10.496048927307129]},"properties":{"NAME":"Caracas","COUNTRY":"Venezuela","CAPITAL":"Y"}},
{"type":"Feature","geometry":{"type":"Point","coordinates":[-69.33919525146484,10.065665245056152]},"properties":{"NAME":"Barquisimeto","COUNTRY":"Venezuela","CAPITAL":"N"}},
{"type":"Feature","geometry":{"type":"Point","coordinates":[-84.07861328125,9.930476188659668]},"properties":{"NAME":"San Jose","COUNTRY":"Costa Rica","CAPITAL":"Y"}},
{"type":"Feature","geometry":{"type":"Point","coordinates":[78.1217269897461,9.913986206054688]},"properties":{"NAME":"Madurai","COUNTRY":"India","CAPITAL":"N"}},
{"type":"Feature","geometry":{"type":"Point","coordinates":[3.8952784538269043,7.378840446472168]},"properties":{"NAME":"Ibadan","COUNTRY":"Nigeria","CAPITAL":"N"}},
{"type":"Feature","geometry":{"type":"Point","coordinates":[125.61367797851562,7.080080032348633]},"properties":{"NAME":"Davao","COUNTRY":"Philippines","CAPITAL":"N"}},
{"type":"Feature","geometry":{"type":"Point","coordinates":[7.492080211639404,6.450538635253906]},"properties":{"NAME":"Enugu","COUNTRY":"Nigeria","CAPITAL":"N"}},
{"type":"Feature","geometry":{"type":"Point","coordinates":[-75.59203338623047,6.241146564483643]},"properties":{"NAME":"Medellin","COUNTRY":"Colombia","CAPITAL":"N"}},
{"type":"Feature","geometry":{"type":"Point","coordinates":[-0.2009236365556717,5.558562755584717]},"properties":{"NAME":"Accra","COUNTRY":"Ghana","CAPITAL":"Y"}},
{"type":"Feature","geometry":{"type":"Point","coordinates":[-4.021886825561523,5.324857234954834]},"properties":{"NAME":"Abidjan","COUNTRY":"Ivory Coast","CAPITAL":"Y"}},
{"type":"Feature","geometry":{"type":"Point","coordinates":[-74.08051300048828,4.63021993637085]},"properties":{"NAME":"Bogota","COUNTRY":"Colombia","CAPITAL":"Y"}},
{"type":"Feature","geometry":{"type":"Point","coordinates":[18.562341690063477,4.365856170654297]},"properties":{"NAME":"Bangui","COUNTRY":"Cent Af Rep","CAPITAL":"Y"}},
{"type":"Feature","geometry":{"type":"Point","coordinates":[11.513641357421875,3.8651230335235596]},"properties":{"NAME":"Yaounde","COUNTRY":"Cameroon","CAPITAL":"Y"}},
{"type":"Feature","geometry":{"type":"Point","coordinates":[98.67559814453125,3.5852420330047607]},"properties":{"NAME":"Medan","COUNTRY":"Indonesia","CAPITAL":"N"}},
{"type":"Feature","geometry":{"type":"Point","coordinates":[-76.5224380493164,3.456855297088623]},"properties":{"NAME":"Cali","COUNTRY":"Colombia","CAPITAL":"N"}},
{"type":"Feature","geometry":{"type":"Point","coordinates":[101.70767211914062,3.150210380554199]},"properties":{"NAME":"Kuala Lumpur","COUNTRY":"Malaysia","CAPITAL":"Y"}},
{"type":"Feature","geometry":{"type":"Point","coordinates":[45.34414291381836,2.04117751121521]},"properties":{"NAME":"Muqdisho","COUNTRY":"Somalia","CAPITAL":"Y"}},
{"type":"Feature","geometry":{"type":"Point","coordinates":[25.196147918701172,0.5192849040031433]},"properties":{"NAME":"Kisangani","COUNTRY":"DR Congo","CAPITAL":"N"}},
{"type":"Feature","geometry":{"type":"Point","coordinates":[-78.52428436279297,-0.22949813306331635]},"properties":{"NAME":"Quito","COUNTRY":"Ecuador","CAPITAL":"Y"}},
{"type":"Feature","geometry":{"type":"Point","coordinates":[-73.19149017333984,-3.7528953552246094]},"properties":{"NAME":"Iquitos","COUNTRY":"Peru","CAPITAL":"N"}},
{"type":"Feature","geometry":{"type":"Point","coordinates":[-38.58890151977539,-3.7833218574523926]},"properties":{"NAME":"Fortaleza","COUNTRY":"Brazil","CAPITAL":"N"}},
{"type":"Feature","geometry":{"type":"Point","coordinates":[15.285148620605469,-4.285186767578125]},"properties":{"NAME":"Brazzaville","COUNTRY":"Congo","CAPITAL":"Y"}},
{"type":"Feature","geometry":{"type":"Point","coordinates":[22.40277862548828,-5.892210960388184]},"properties":{"NAME":"Kananga","COUNTRY":"DR Congo","CAPITAL":"N"}},
{"type":"Feature","geometry":{"type":"Point","coordinates":[39.25334930419922,-6.81735897064209]},"properties":{"NAME":"Dar es Salaam","COUNTRY":"Tanzania","CAPITAL":"Y"}},
{"type":"Feature","geometry":{"type":"Point","coordinates":[107.60690307617188,-6.912430286407471]},"properties":{"NAME":"Bandung","COUNTRY":"Indonesia","CAPITAL":"N"}},
{"type":"Feature","geometry":{"type":"Point","coordinates":[-34.91463851928711,-8.08516788482666]},"properties":{"NAME":"Recife","COUNTRY":"Brazil","CAPITAL":"N"}},
{"type":"Feature","geometry":{"type":"Point","coordinates":[13.464879989624023,-12.717735290527344]},"properties":{"NAME":"Benguela","COUNTRY":"Angola","CAPITAL":"N"}},
{"type":"Feature","geometry":{"type":"Point","coordinates":[-47.89774703979492,-15.792109489440918]},"properties":{"NAME":"Brasilia","COUNTRY":"Brazil","CAPITAL":"Y"}},
{"type":"Feature","geometry":{"type":"Point","coordinates":[-71.52274322509766,-16.397539138793945]},"properties":{"NAME":"Arequipa","COUNTRY":"Peru","CAPITAL":"N"}},
{"type":"Feature","geometry":{"type":"Point","coordinates":[-68.14624786376953,-16.499006271362305]},"properties":{"NAME":"La Paz","COUNTRY":"Bolivia","CAPITAL":"Y"}},
{"type":"Feature","geometry":{"type":"Point","coordinates":[-49.25481033325195,-16.726699829101562]},"properties":{"NAME":"Goiania","COUNTRY":"Brazil","CAPITAL":"N"}},
{"type":"Feature","geometry":{"type":"Point","coordinates":[-63.197418212890625,-17.78879165649414]},"properties":{"NAME":"Santa Cruz de La Sierra","COUNTRY":"Bolivia","CAPITAL":"N"}},
{"type":"Feature","geometry":{"type":"Point","coordinates":[-65.2558822631836,-19.04213523864746]},"properties":{"NAME":"Sucre","COUNTRY":"Bolivia","CAPITAL":"N"}},
{"type":"Feature","geometry":{"type":"Point","coordinates":[-43.9090690612793,-19.851720809936523]},"properties":{"NAME":"Belo Horizonte","COUNTRY":"Brazil","CAPITAL":"N"}},
{"type":"Feature","geometry":{"type":"Point","coordinates":[-43.455177307128906,-22.721572875976562]},"properties":{"NAME":"Rio de Janeiro","COUNTRY":"Brazil","CAPITAL":"N"}},
{"type":"Feature","geometry":{"type":"Point","coordinates":[-46.62289810180664,-23.5813045501709]},"properties":{"NAME":"Sao Paulo","COUNTRY":"Brazil","CAPITAL":"N"}},
{"type":"Feature","geometry":{"type":"Point","coordinates":[-46.30949401855469,-23.954700469970703]},"properties":{"NAME":"Santos","COUNTRY":"Brazil","CAPITAL":"N"}},
{"type":"Feature","geometry":{"type":"Point","coordinates":[25.794801712036133,-24.661441802978516]},"properties":{"NAME":"Gaborone","COUNTRY":"Botswana","CAPITAL":"Y"}},
{"type":"Feature","geometry":{"type":"Point","coordinates":[-49.284507751464844,-25.430479049682617]},"properties":{"NAME":"Curitiba","COUNTRY":"Brazil","CAPITAL":"N"}},
{"type":"Feature","geometry":{"type":"Point","coordinates":[28.218372344970703,-25.731346130371094]},"properties":{"NAME":"Pretoria","COUNTRY":"South Africa","CAPITAL":"Y"}},
{"type":"Feature","geometry":{"type":"Point","coordinates":[32.573692321777344,-25.962154388427734]},"properties":{"NAME":"Maputo","COUNTRY":"Mozambique","CAPITAL":"Y"}},
{"type":"Feature","geometry":{"type":"Point","coordinates":[28.004308700561523,-26.178956985473633]},"properties":{"NAME":"Johannesburg","COUNTRY":"South Africa","CAPITAL":"N"}},
{"type":"Feature","geometry":{"type":"Point","coordinates":[153.0264892578125,-27.45391273498535]},"properties":{"NAME":"Brisbane","COUNTRY":"Australia","CAPITAL":"N"}},
{"type":"Feature","geometry":{"type":"Point","coordinates":[30.942188262939453,-29.83637237548828]},"properties":{"NAME":"Durban","COUNTRY":"South Africa","CAPITAL":"N"}},
{"type":"Feature","geometry":{"type":"Point","coordinates":[-51.20798873901367,-30.039533615112305]},"properties":{"NAME":"Porto Alegre","COUNTRY":"Brazil","CAPITAL":"N"}},
{"type":"Feature","geometry":{"type":"Point","coordinates":[-64.17985534667969,-31.3162784576416]},"properties":{"NAME":"Cordoba","COUNTRY":"Argentina","CAPITAL":"N"}},
{"type":"Feature","geometry":{"type":"Point","coordinates":[-60.69784164428711,-31.616897583007812]},"properties":{"NAME":"Santa Fe","COUNTRY":"Argentina","CAPITAL":"N"}},
{"type":"Feature","geometry":{"type":"Point","coordinates":[-68.8297348022461,-32.897438049316406]},"properties":{"NAME":"Mendoza","COUNTRY":"Argentina","CAPITAL":"N"}},
{"type":"Feature","geometry":{"type":"Point","coordinates":[-60.6639404296875,-32.93773651123047]},"properties":{"NAME":"Rosario","COUNTRY":"Argentina","CAPITAL":"N"}},
{"type":"Feature","geometry":{"type":"Point","coordinates":[-70.64751434326172,-33.47502517700195]},"properties":{"NAME":"Santiago","COUNTRY":"Chile","CAPITAL":"Y"}},
{"type":"Feature","geometry":{"type":"Point","coordinates":[25.484298706054688,-33.88157653808594]},"properties":{"NAME":"Port Elizabeth","COUNTRY":"South Africa","CAPITAL":"N"}},
{"type":"Feature","geometry":{"type":"Point","coordinates":[151.0281982421875,-33.889774322509766]},"properties":{"NAME":"Sydney","COUNTRY":"Australia","CAPITAL":"N"}},
{"type":"Feature","geometry":{"type":"Point","coordinates":[-58.40959167480469,-34.665401458740234]},"properties":{"NAME":"Buenos Aires","COUNTRY":"Argentina","CAPITAL":"Y"}},
{"type":"Feature","geometry":{"type":"Point","coordinates":[149.0416259765625,-35.34992599487305]},"properties":{"NAME":"Canberra","COUNTRY":"Australia","CAPITAL":"Y"}},
{"type":"Feature","geometry":{"type":"Point","coordinates":[174.80105590820312,-36.893253326416016]},"properties":{"NAME":"Auckland","COUNTRY":"New Zealand","CAPITAL":"N"}},
{"type":"Feature","geometry":{"type":"Point","coordinates":[145.07510375976562,-37.85295867919922]},"properties":{"NAME":"Melbourne","COUNTRY":"Australia","CAPITAL":"N"}},
{"type":"Feature","geometry":{"type":"Point","coordinates":[-62.27406692504883,-38.72527313232422]},"properties":{"NAME":"Bahia Blanca","COUNTRY":"Argentina","CAPITAL":"N"}},
{"type":"Feature","geometry":{"type":"Point","coordinates":[172.68365478515625,-43.54891586303711]},"properties":{"NAME":"Christchurch","COUNTRY":"New Zealand","CAPITAL":"N"}},
{"type":"Feature","geometry":{"type":"Point","coordinates":[24.976699829101562,60.1964225769043]},"properties":{"NAME":"Helsinki","COUNTRY":"Finland","CAPITAL":"Y"}},
{"type":"Feature","geometry":{"type":"Point","coordinates":[10.759258270263672,34.74523162841797]},"properties":{"NAME":"Sfax","COUNTRY":"Tunisia","CAPITAL":"N"}},
{"type":"Feature","geometry":{"type":"Point","coordinates":[135.1818389892578,34.663841247558594]},"properties":{"NAME":"Kobe","COUNTRY":"Japan","CAPITAL":"N"}},
{"type":"Feature","geometry":{"type":"Point","coordinates":[35.25206066254455,31.800587426460563]},"properties":{"NAME":"Jerusalem","COUNTRY":"Israel","CAPITAL":"Y"}},
{"type":"Feature","geometry":{"type":"Point","coordinates":[-68.00311279296875,10.178220748901367]},"properties":{"NAME":"Valencia","COUNTRY":"Venezuela","CAPITAL":"N"}},
{"type":"Feature","geometry":{"type":"Point","coordinates":[-79.90939331054688,-2.2038161754608154]},"properties":{"NAME":"Guayaquil","COUNTRY":"Ecuador","CAPITAL":"N"}},
{"type":"Feature","geometry":{"type":"Point","coordinates":[-122.3088150024414,37.72751235961914]},"properties":{"NAME":"San Francisco","COUNTRY":"US","CAPITAL":"N"}},
{"type":"Feature","geometry":{"type":"Point","coordinates":[-3.298783302307129,55.87525177001953]},"properties":{"NAME":"Edinburgh","COUNTRY":"UK","CAPITAL":"N"}},
{"type":"Feature","geometry":{"type":"Point","coordinates":[13.93283748626709,45.70028305053711]},"properties":{"NAME":"Trieste","COUNTRY":"Italy","CAPITAL":"N"}},
{"type":"Feature","geometry":{"type":"Point","coordinates":[130.3171844482422,33.309906005859375]},"properties":{"NAME":"Fukuoka","COUNTRY":"Japan","CAPITAL":"N"}},
{"type":"Feature","geometry":{"type":"Point","coordinates":[130.79745483398438,33.68186569213867]},"properties":{"NAME":"Kita Kyushu","COUNTRY":"Japan","CAPITAL":"N"}},
{"type":"Feature","geometry":{"type":"Point","coordinates":[15.240823745727539,12.10413932800293]},"properties":{"NAME":"N'Djamena","COUNTRY":"Chad","CAPITAL":"Y"}},
{"type":"Feature","geometry":{"type":"Point","coordinates":[13.211822509765625,32.751617431640625]},"properties":{"NAME":"Tripoli","COUNTRY":"Libya","CAPITAL":"Y"}},
{"type":"Feature","geometry":{"type":"Point","coordinates":[27.205768585205078,38.43891906738281]},"properties":{"NAME":"Izmir","COUNTRY":"Turkey","CAPITAL":"N"}},
{"type":"Feature","geometry":{"type":"Point","coordinates":[15.469293594360352,-4.388674736022949]},"properties":{"NAME":"Kinshasa","COUNTRY":"DR Congo","CAPITAL":"Y"}},
{"type":"Feature","geometry":{"type":"Point","coordinates":[138.8706817626953,-34.91853713989258]},"properties":{"NAME":"Adelaide","COUNTRY":"Australia","CAPITAL":"N"}},
{"type":"Feature","geometry":{"type":"Point","coordinates":[106.76246643066406,-6.2939043045043945]},"properties":{"NAME":"Jakarta","COUNTRY":"Indonesia","CAPITAL":"Y"}},
{"type":"Feature","geometry":{"type":"Point","coordinates":[110.44425964355469,-7.027844429016113]},"properties":{"NAME":"Semarang","COUNTRY":"Indonesia","CAPITAL":"N"}},
{"type":"Feature","geometry":{"type":"Point","coordinates":[-76.83563232421875,-12.043540000915527]},"properties":{"NAME":"Callao","COUNTRY":"Peru","CAPITAL":"N"}},
{"type":"Feature","geometry":{"type":"Point","coordinates":[-48.31627655029297,-1.6053290367126465]},"properties":{"NAME":"Belem","COUNTRY":"Brazil","CAPITAL":"N"}},
{"type":"Feature","geometry":{"type":"Point","coordinates":[120.43412780761719,36.148353576660156]},"properties":{"NAME":"Qingdao","COUNTRY":"China","CAPITAL":"N"}},
{"type":"Feature","geometry":{"type":"Point","coordinates":[102.68023681640625,18.001731872558594]},"properties":{"NAME":"Vientiane","COUNTRY":"Laos","CAPITAL":"Y"}},
{"type":"Feature","geometry":{"type":"Point","coordinates":[13.090898513793945,47.801170349121094]},"properties":{"NAME":"Salzburg","COUNTRY":"Austria","CAPITAL":"N"}},
{"type":"Feature","geometry":{"type":"Point","coordinates":[15.964385986328125,45.80707550048828]},"properties":{"NAME":"Zagreb","COUNTRY":"Croatia","CAPITAL":"Y"}},
{"type":"Feature","geometry":{"type":"Point","coordinates":[29.533586502075195,-3.2690837383270264]},"properties":{"NAME":"Bujumbura","COUNTRY":"Burundi","CAPITAL":"Y"}},
{"type":"Feature","geometry":{"type":"Point","coordinates":[33.385162353515625,35.165069580078125]},"properties":{"NAME":"Nicosia","COUNTRY":"Cyprus","CAPITAL":"Y"}},
{"type":"Feature","geometry":{"type":"Point","coordinates":[29.991485595703125,-2.1179351806640625]},"properties":{"NAME":"Kigali","COUNTRY":"Rwanda","CAPITAL":"Y"}},
{"type":"Feature","geometry":{"type":"Point","coordinates":[14.639612197875977,46.068302154541016]},"properties":{"NAME":"Ljubljana","COUNTRY":"Slovenia","CAPITAL":"Y"}},
{"type":"Feature","geometry":{"type":"Point","coordinates":[27.89038848876953,-29.256710052490234]},"properties":{"NAME":"Maseru","COUNTRY":"Lesotho","CAPITAL":"Y"}},
{"type":"Feature","geometry":{"type":"Point","coordinates":[6.273255825042725,49.74040603637695]},"properties":{"NAME":"Luxembourg","COUNTRY":"Luxembourg","CAPITAL":"Y"}},
{"type":"Feature","geometry":{"type":"Point","coordinates":[4.300624370574951,51.903621673583984]},"properties":{"NAME":"The Hague","COUNTRY":"Netherlands","CAPITAL":"N"}},
{"type":"Feature","geometry":{"type":"Point","coordinates":[17.269805908203125,48.27450942993164]},"properties":{"NAME":"Bratislava","COUNTRY":"Slovakia","CAPITAL":"Y"}},
{"type":"Feature","geometry":{"type":"Point","coordinates":[-106.62999725341797,52.11000061035156]},"properties":{"NAME":"Saskatoon","COUNTRY":"Canada","CAPITAL":"N"}},
{"type":"Feature","geometry":{"type":"Point","coordinates":[-104.6500015258789,50.40999984741211]},"properties":{"NAME":"Regina","COUNTRY":"Canada","CAPITAL":"N"}},
{"type":"Feature","geometry":{"type":"Point","coordinates":[-106.44999694824219,31.780000686645508]},"properties":{"NAME":"El Paso","COUNTRY":"US","CAPITAL":"N"}},
{"type":"Feature","geometry":{"type":"Point","coordinates":[-81.66000366210938,30.329999923706055]},"properties":{"NAME":"Jacksonville","COUNTRY":"US","CAPITAL":"N"}},
{"type":"Feature","geometry":{"type":"Point","coordinates":[-80.7300033569336,51.33000183105469]},"properties":{"NAME":"Moosonee","COUNTRY":"Canada","CAPITAL":"N"}},
{"type":"Feature","geometry":{"type":"Point","coordinates":[-67.01000213623047,54.86000061035156]},"properties":{"NAME":"Schefferville","COUNTRY":"Canada","CAPITAL":"N"}},
{"type":"Feature","geometry":{"type":"Point","coordinates":[-60.54999923706055,53.310001373291016]},"properties":{"NAME":"Goose Bay","COUNTRY":"Canada","CAPITAL":"N"}},
{"type":"Feature","geometry":{"type":"Point","coordinates":[-63.900001525878906,-8.75]},"properties":{"NAME":"Porto Velho","COUNTRY":"Brazil","CAPITAL":"N"}},
{"type":"Feature","geometry":{"type":"Point","coordinates":[-71.86000061035156,-13.600000381469727]},"properties":{"NAME":"Cuzco","COUNTRY":"Peru","CAPITAL":"N"}},
{"type":"Feature","geometry":{"type":"Point","coordinates":[-56.04999923706055,-15.550000190734863]},"properties":{"NAME":"Cuiaba","COUNTRY":"Brazil","CAPITAL":"N"}},
{"type":"Feature","geometry":{"type":"Point","coordinates":[-58.900001525878906,-27.399999618530273]},"properties":{"NAME":"Resistencia","COUNTRY":"Argentina","CAPITAL":"N"}},
{"type":"Feature","geometry":{"type":"Point","coordinates":[-3.009999990463257,16.760000228881836]},"properties":{"NAME":"Tombouctoo","COUNTRY":"Mali","CAPITAL":"N"}},
{"type":"Feature","geometry":{"type":"Point","coordinates":[13.260000228881836,11.880000114440918]},"properties":{"NAME":"Maiduguri","COUNTRY":"Niger","CAPITAL":"N"}},
{"type":"Feature","geometry":{"type":"Point","coordinates":[13.449999809265137,-5.809999942779541]},"properties":{"NAME":"Matadi","COUNTRY":"DR Congo","CAPITAL":"N"}},
{"type":"Feature","geometry":{"type":"Point","coordinates":[15.779999732971191,-12.729999542236328]},"properties":{"NAME":"Huambo","COUNTRY":"Angola","CAPITAL":"N"}},
{"type":"Feature","geometry":{"type":"Point","coordinates":[24.829999923706055,-28.65999984741211]},"properties":{"NAME":"Kimberley","COUNTRY":"South Africa","CAPITAL":"N"}},
{"type":"Feature","geometry":{"type":"Point","coordinates":[27.899999618530273,-33.029998779296875]},"properties":{"NAME":"East London","COUNTRY":"South Africa","CAPITAL":"N"}},
{"type":"Feature","geometry":{"type":"Point","coordinates":[19,-7.329999923706055]},"properties":{"NAME":"Kahemba","COUNTRY":"DR Congo","CAPITAL":"N"}},
{"type":"Feature","geometry":{"type":"Point","coordinates":[35.75,-6.179999828338623]},"properties":{"NAME":"Dodoma","COUNTRY":"Tanzania","CAPITAL":"N"}},
{"type":"Feature","geometry":{"type":"Point","coordinates":[17.299999237060547,68.3499984741211]},"properties":{"NAME":"Narvik","COUNTRY":"Norway","CAPITAL":"N"}},
{"type":"Feature","geometry":{"type":"Point","coordinates":[62.209999084472656,34.459999084472656]},"properties":{"NAME":"Herat","COUNTRY":"Afghanistan","CAPITAL":"N"}},
{"type":"Feature","geometry":{"type":"Point","coordinates":[37.75,55.880001068115234]},"properties":{"NAME":"Druzba","COUNTRY":"Russia","CAPITAL":"N"}},
{"type":"Feature","geometry":{"type":"Point","coordinates":[76,39.47999954223633]},"properties":{"NAME":"Kashi","COUNTRY":"China","CAPITAL":"N"}},
{"type":"Feature","geometry":{"type":"Point","coordinates":[121.52999877929688,24.979999542236328]},"properties":{"NAME":"Chingmei","COUNTRY":"Taiwan","CAPITAL":"N"}},
{"type":"Feature","geometry":{"type":"Point","coordinates":[107.69999694824219,16.459999084472656]},"properties":{"NAME":"Hue","COUNTRY":"Vietnam","CAPITAL":"N"}},
{"type":"Feature","geometry":{"type":"Point","coordinates":[110.43000030517578,1.5]},"properties":{"NAME":"Kuching","COUNTRY":"Malaysia","CAPITAL":"N"}},
{"type":"Feature","geometry":{"type":"Point","coordinates":[116.86000061035156,-1.2100000381469727]},"properties":{"NAME":"Balikpapan","COUNTRY":"Indonesia","CAPITAL":"N"}},
{"type":"Feature","geometry":{"type":"Point","coordinates":[110.75,50.33000183105469]},"properties":{"NAME":"Chatanga","COUNTRY":"Russia","CAPITAL":"N"}},
{"type":"Feature","geometry":{"type":"Point","coordinates":[113.58000183105469,52.04999923706055]},"properties":{"NAME":"Chita","COUNTRY":"Russia","CAPITAL":"N"}},
{"type":"Feature","geometry":{"type":"Point","coordinates":[133.41000366210938,67.58000183105469]},"properties":{"NAME":"Verkhoyvensk","COUNTRY":"Russia","CAPITAL":"N"}},
{"type":"Feature","geometry":{"type":"Point","coordinates":[129.8300018310547,62.0099983215332]},"properties":{"NAME":"Yakutsk","COUNTRY":"Russia","CAPITAL":"N"}},
{"type":"Feature","geometry":{"type":"Point","coordinates":[143.25,59.33000183105469]},"properties":{"NAME":"Okhotsk","COUNTRY":"Russia","CAPITAL":"N"}},
{"type":"Feature","geometry":{"type":"Point","coordinates":[45.529998779296875,50.08000183105469]},"properties":{"NAME":"Nikolayevsk","COUNTRY":"Russia","CAPITAL":"N"}},
{"type":"Feature","geometry":{"type":"Point","coordinates":[142.75,46.959999084472656]},"properties":{"NAME":"Yuzhno-Sakhalinsk","COUNTRY":"Russia","CAPITAL":"N"}},
{"type":"Feature","geometry":{"type":"Point","coordinates":[133.92999267578125,-23.6299991607666]},"properties":{"NAME":"Alice Springs","COUNTRY":"Australia","CAPITAL":"N"}},
{"type":"Feature","geometry":{"type":"Point","coordinates":[145.7100067138672,-16.850000381469727]},"properties":{"NAME":"Cairns","COUNTRY":"Australia","CAPITAL":"N"}},
{"type":"Feature","geometry":{"type":"Point","coordinates":[146.8300018310547,-19.299999237060547]},"properties":{"NAME":"Townsville","COUNTRY":"Australia","CAPITAL":"N"}},
{"type":"Feature","geometry":{"type":"Point","coordinates":[150.47999572753906,-23.43000030517578]},"properties":{"NAME":"Rockhampton","COUNTRY":"Australia","CAPITAL":"N"}},
{"type":"Feature","geometry":{"type":"Point","coordinates":[151.91000366210938,-33]},"properties":{"NAME":"Newcastle","COUNTRY":"Australia","CAPITAL":"N"}},
{"type":"Feature","geometry":{"type":"Point","coordinates":[147.5,-43]},"properties":{"NAME":"Hobart","COUNTRY":"Australia","CAPITAL":"N"}},
{"type":"Feature","geometry":{"type":"Point","coordinates":[170.5,-45.86000061035156]},"properties":{"NAME":"Dunedin","COUNTRY":"New Zealand","CAPITAL":"N"}},
{"type":"Feature","geometry":{"type":"Point","coordinates":[-123.56910705566406,48.65456771850586]},"properties":{"NAME":"Victoria","COUNTRY":"Canada","CAPITAL":"N"}},
{"type":"Feature","geometry":{"type":"Point","coordinates":[2.632502794265747,6.601096153259277]},"properties":{"NAME":"Porto Novo","COUNTRY":"Benin","CAPITAL":"Y"}},
{"type":"Feature","geometry":{"type":"Point","coordinates":[9.706374168395996,4.136650085449219]},"properties":{"NAME":"Douala","COUNTRY":"Cameroon","CAPITAL":"N"}},
{"type":"Feature","geometry":{"type":"Point","coordinates":[119.72279357910156,-5.190430164337158]},"properties":{"NAME":"Vjuag Padang","COUNTRY":"Indonesia","CAPITAL":"N"}},
{"type":"Feature","geometry":{"type":"Point","coordinates":[129.31292724609375,-3.3865532875061035]},"properties":{"NAME":"Ambon","COUNTRY":"Indonesia","CAPITAL":"N"}},
{"type":"Feature","geometry":{"type":"Point","coordinates":[126.76744079589844,37.58945083618164]},"properties":{"NAME":"Inch`on","COUNTRY":"Korea Rep","CAPITAL":"N"}},
{"type":"Feature","geometry":{"type":"Point","coordinates":[121.59819793701172,39.031715393066406]},"properties":{"NAME":"Dalian","COUNTRY":"China","CAPITAL":"N"}},
{"type":"Feature","geometry":{"type":"Point","coordinates":[-122.64167785644531,45.44213104248047]},"properties":{"NAME":"Portland","COUNTRY":"US","CAPITAL":"N"}},
{"type":"Feature","geometry":{"type":"Point","coordinates":[-60.014617919921875,-3.122304916381836]},"properties":{"NAME":"Manaus","COUNTRY":"Brazil","CAPITAL":"N"}},
{"type":"Feature","geometry":{"type":"Point","coordinates":[-54.61000061035156,-2.4600000381469727]},"properties":{"NAME":"Santarem","COUNTRY":"Brazil","CAPITAL":"N"}},
{"type":"Feature","geometry":{"type":"Point","coordinates":[168.4499969482422,-46.40999984741211]},"properties":{"NAME":"Invercargill","COUNTRY":"New Zealand","CAPITAL":"N"}},
{"type":"Feature","geometry":{"type":"Point","coordinates":[40.18000030517578,-10.260000228881836]},"properties":{"NAME":"Mtwara","COUNTRY":"Tanzania","CAPITAL":"N"}},
{"type":"Feature","geometry":{"type":"Point","coordinates":[49.40999984741211,-18.229999542236328]},"properties":{"NAME":"Toamasina","COUNTRY":"Madagascar","CAPITAL":"N"}},
{"type":"Feature","geometry":{"type":"Point","coordinates":[26.260000228881836,-29.149999618530273]},"properties":{"NAME":"Bloemfontein","COUNTRY":"South Africa","CAPITAL":"N"}},
{"type":"Feature","geometry":{"type":"Point","coordinates":[28.709999084472656,-20.200000762939453]},"properties":{"NAME":"Bulawayo","COUNTRY":"Zimbabwe","CAPITAL":"N"}},
{"type":"Feature","geometry":{"type":"Point","coordinates":[25.8799991607666,-17.829999923706055]},"properties":{"NAME":"Livingstone","COUNTRY":"Zambia","CAPITAL":"N"}},
{"type":"Feature","geometry":{"type":"Point","coordinates":[39.70000076293945,24.43000030517578]},"properties":{"NAME":"Al Madinah","COUNTRY":"Saudi Arabia","CAPITAL":"N"}},
{"type":"Feature","geometry":{"type":"Point","coordinates":[31.280000686645508,21.760000228881836]},"properties":{"NAME":"Wadi Halfa","COUNTRY":"Sudan","CAPITAL":"N"}},
{"type":"Feature","geometry":{"type":"Point","coordinates":[32.95000076293945,24.079999923706055]},"properties":{"NAME":"Aswan","COUNTRY":"Egypt","CAPITAL":"N"}},
{"type":"Feature","geometry":{"type":"Point","coordinates":[13.90999984741211,25.90999984741211]},"properties":{"NAME":"Murzuq","COUNTRY":"Libya","CAPITAL":"N"}},
{"type":"Feature","geometry":{"type":"Point","coordinates":[-8.15999984741211,27.700000762939453]},"properties":{"NAME":"Tindouf","COUNTRY":"Algeria","CAPITAL":"N"}},
{"type":"Feature","geometry":{"type":"Point","coordinates":[7.980000019073486,16.959999084472656]},"properties":{"NAME":"Agadez","COUNTRY":"Niger","CAPITAL":"N"}},
{"type":"Feature","geometry":{"type":"Point","coordinates":[30.15999984741211,13.180000305175781]},"properties":{"NAME":"El Obeid","COUNTRY":"Sudan","CAPITAL":"N"}},
{"type":"Feature","geometry":{"type":"Point","coordinates":[18.459999084472656,0.05000000074505806]},"properties":{"NAME":"Mbandaka","COUNTRY":"DR Congo","CAPITAL":"N"}},
{"type":"Feature","geometry":{"type":"Point","coordinates":[-135.00999450683594,60.650001525878906]},"properties":{"NAME":"Whitehorse","COUNTRY":"Canada","CAPITAL":"N"}},
{"type":"Feature","geometry":{"type":"Point","coordinates":[-70.80000305175781,-53.150001525878906]},"properties":{"NAME":"Punta Arenas","COUNTRY":"Chile","CAPITAL":"N"}},
{"type":"Feature","geometry":{"type":"Point","coordinates":[-73,-41.47999954223633]},"properties":{"NAME":"Puerto Montt","COUNTRY":"Chile","CAPITAL":"N"}},
{"type":"Feature","geometry":{"type":"Point","coordinates":[-69.41000366210938,-51.709999084472656]},"properties":{"NAME":"Rio Gallegos","COUNTRY":"Argentina","CAPITAL":"N"}},
{"type":"Feature","geometry":{"type":"Point","coordinates":[-67.5,-45.83000183105469]},"properties":{"NAME":"Comodoro Rivadavia","COUNTRY":"Argentina","CAPITAL":"N"}},
{"type":"Feature","geometry":{"type":"Point","coordinates":[32.560001373291016,29.959999084472656]},"properties":{"NAME":"Suez","COUNTRY":"Egypt","CAPITAL":"N"}},
{"type":"Feature","geometry":{"type":"Point","coordinates":[29.97780990600586,31.074604034423828]},"properties":{"NAME":"Alexandria","COUNTRY":"Egypt","CAPITAL":"N"}},
{"type":"Feature","geometry":{"type":"Point","coordinates":[40.70000076293945,-15.050000190734863]},"properties":{"NAME":"Mocambique","COUNTRY":"Mozambique","CAPITAL":"N"}},
{"type":"Feature","geometry":{"type":"Point","coordinates":[73.17234802246094,19.045347213745117]},"properties":{"NAME":"Bombay","COUNTRY":"India","CAPITAL":"N"}},
{"type":"Feature","geometry":{"type":"Point","coordinates":[2.9936931133270264,36.596492767333984]},"properties":{"NAME":"Algiers","COUNTRY":"Algeria","CAPITAL":"Y"}},
{"type":"Feature","geometry":{"type":"Point","coordinates":[36.20831298828125,49.98967361450195]},"properties":{"NAME":"Kharkov","COUNTRY":"Ukraine","CAPITAL":"N"}},
{"type":"Feature","geometry":{"type":"Point","coordinates":[35.13789367675781,48.422889709472656]},"properties":{"NAME":"Dnepropetrovsk","COUNTRY":"Ukraine","CAPITAL":"N"}},
{"type":"Feature","geometry":{"type":"Point","coordinates":[24.752056121826172,59.27757263183594]},"properties":{"NAME":"Tallinn","COUNTRY":"Estonia","CAPITAL":"Y"}},
{"type":"Feature","geometry":{"type":"Point","coordinates":[97,47.810001373291016]},"properties":{"NAME":"Uliastay","COUNTRY":"Mongolia","CAPITAL":"N"}},
{"type":"Feature","geometry":{"type":"Point","coordinates":[-69.91049194335938,18.49972915649414]},"properties":{"NAME":"Santo Domingo","COUNTRY":"Dominican Rp","CAPITAL":"Y"}},
{"type":"Feature","geometry":{"type":"Point","coordinates":[114.96700286865234,4.933000087738037]},"properties":{"NAME":"Bandar Seri Begawan","COUNTRY":"Brunei","CAPITAL":"Y"}},
{"type":"Feature","geometry":{"type":"Point","coordinates":[-16.49461555480957,13.445272445678711]},"properties":{"NAME":"Banjul","COUNTRY":"Gambia","CAPITAL":"Y"}},
{"type":"Feature","geometry":{"type":"Point","coordinates":[-61.49006271362305,10.639734268188477]},"properties":{"NAME":"Port of Spain","COUNTRY":"Trinidad","CAPITAL":"Y"}},
{"type":"Feature","geometry":{"type":"Point","coordinates":[-99.9314956665039,16.97438621520996]},"properties":{"NAME":"Acapulco","COUNTRY":"Mexico","CAPITAL":"N"}},
{"type":"Feature","geometry":{"type":"Point","coordinates":[177.13018798828125,64.40016174316406]},"properties":{"NAME":"Anadyr","COUNTRY":"Russia","CAPITAL":"N"}},
{"type":"Feature","geometry":{"type":"Point","coordinates":[-37.311866760253906,65.66999816894531]},"properties":{"NAME":"Angmagssalik","COUNTRY":"Greenland","CAPITAL":"N"}},
{"type":"Feature","geometry":{"type":"Point","coordinates":[-70.22544860839844,-23.832536697387695]},"properties":{"NAME":"Antofagasta","COUNTRY":"Chile","CAPITAL":"N"}},
{"type":"Feature","geometry":{"type":"Point","coordinates":[140.6699981689453,40.75]},"properties":{"NAME":"Aomori","COUNTRY":"Japan","CAPITAL":"N"}},
{"type":"Feature","geometry":{"type":"Point","coordinates":[20.30867576599121,32.043052673339844]},"properties":{"NAME":"Banghazi","COUNTRY":"Libya","CAPITAL":"N"}},
{"type":"Feature","geometry":{"type":"Point","coordinates":[133.22000122070312,-15.75]},"properties":{"NAME":"Birdum","COUNTRY":"Australia","CAPITAL":"N"}},
{"type":"Feature","geometry":{"type":"Point","coordinates":[-60.5,2.75]},"properties":{"NAME":"Boa Vista","COUNTRY":"Brazil","CAPITAL":"N"}},
{"type":"Feature","geometry":{"type":"Point","coordinates":[-79.83000183105469,-6.619999885559082]},"properties":{"NAME":"Chiclayo","COUNTRY":"Peru","CAPITAL":"N"}},
{"type":"Feature","geometry":{"type":"Point","coordinates":[-78.4531478881836,-8.930100440979004]},"properties":{"NAME":"Chimbote","COUNTRY":"Peru","CAPITAL":"N"}},
{"type":"Feature","geometry":{"type":"Point","coordinates":[-94.18000030517578,58.71076583862305]},"properties":{"NAME":"Churchill","COUNTRY":"Canada","CAPITAL":"N"}},
{"type":"Feature","geometry":{"type":"Point","coordinates":[76.52178192138672,9.987988471984863]},"properties":{"NAME":"Cochin","COUNTRY":"India","CAPITAL":"N"}},
{"type":"Feature","geometry":{"type":"Point","coordinates":[-72.85163879394531,-36.883296966552734]},"properties":{"NAME":"Concepcion","COUNTRY":"Chile","CAPITAL":"N"}},
{"type":"Feature","geometry":{"type":"Point","coordinates":[-71.0199966430664,-31]},"properties":{"NAME":"Coquimbo","COUNTRY":"Chile","CAPITAL":"N"}},
{"type":"Feature","geometry":{"type":"Point","coordinates":[130.9945526123047,-12.701499938964844]},"properties":{"NAME":"Darwin","COUNTRY":"Australia","CAPITAL":"N"}},
{"type":"Feature","geometry":{"type":"Point","coordinates":[43.099998474121094,11.5]},"properties":{"NAME":"Djibouti","COUNTRY":"Djibouti","CAPITAL":"Y"}},
{"type":"Feature","geometry":{"type":"Point","coordinates":[115.9345703125,-32.044166564941406]},"properties":{"NAME":"Fremantle","COUNTRY":"Australia","CAPITAL":"N"}},
{"type":"Feature","geometry":{"type":"Point","coordinates":[100.5471420288086,5.349999904632568]},"properties":{"NAME":"George Town","COUNTRY":"Malaysia","CAPITAL":"N"}},
{"type":"Feature","geometry":{"type":"Point","coordinates":[-53.630001068115234,69.38314056396484]},"properties":{"NAME":"Godhavn","COUNTRY":"Greenland","CAPITAL":"N"}},
{"type":"Feature","geometry":{"type":"Point","coordinates":[-51.58000183105469,64.27118682861328]},"properties":{"NAME":"Godthab","COUNTRY":"Greenland","CAPITAL":"Y"}},
{"type":"Feature","geometry":{"type":"Point","coordinates":[-63.58000183105469,44.630001068115234]},"properties":{"NAME":"Halifax","COUNTRY":"Canada","CAPITAL":"N"}},
{"type":"Feature","geometry":{"type":"Point","coordinates":[23.906341552734375,70.39132690429688]},"properties":{"NAME":"Hammerfest","COUNTRY":"Norway","CAPITAL":"N"}},
{"type":"Feature","geometry":{"type":"Point","coordinates":[86.55000305175781,67.3499984741211]},"properties":{"NAME":"Igarka","COUNTRY":"Russia","CAPITAL":"N"}},
{"type":"Feature","geometry":{"type":"Point","coordinates":[2.5299999713897705,27.200000762939453]},"properties":{"NAME":"In Salah","COUNTRY":"Algeria","CAPITAL":"N"}},
{"type":"Feature","geometry":{"type":"Point","coordinates":[-133.6699981689453,68.2699966430664]},"properties":{"NAME":"Inuvik","COUNTRY":"Canada","CAPITAL":"N"}},
{"type":"Feature","geometry":{"type":"Point","coordinates":[30,-4.949999809265137]},"properties":{"NAME":"Kigoma","COUNTRY":"Tanzania","CAPITAL":"N"}},
{"type":"Feature","geometry":{"type":"Point","coordinates":[47,61.150001525878906]},"properties":{"NAME":"Kotlas","COUNTRY":"Russia","CAPITAL":"N"}},
{"type":"Feature","geometry":{"type":"Point","coordinates":[-13.180000305175781,27]},"properties":{"NAME":"Laayoune","COUNTRY":"W Sahara","CAPITAL":"N"}},
{"type":"Feature","geometry":{"type":"Point","coordinates":[124.88423919677734,1.420086145401001]},"properties":{"NAME":"Manado","COUNTRY":"Indonesia","CAPITAL":"N"}},
{"type":"Feature","geometry":{"type":"Point","coordinates":[75.16088104248047,12.949999809265137]},"properties":{"NAME":"Mangalore","COUNTRY":"India","CAPITAL":"N"}},
{"type":"Feature","geometry":{"type":"Point","coordinates":[-8,31.149999618530273]},"properties":{"NAME":"Marrakech","COUNTRY":"Morocco","CAPITAL":"N"}},
{"type":"Feature","geometry":{"type":"Point","coordinates":[31.19129753112793,-26.303380966186523]},"properties":{"NAME":"Mbabne","COUNTRY":"Swaziland","CAPITAL":"Y"}},
{"type":"Feature","geometry":{"type":"Point","coordinates":[129.8574676513672,32.882747650146484]},"properties":{"NAME":"Nagasaki","COUNTRY":"Japan","CAPITAL":"N"}},
{"type":"Feature","geometry":{"type":"Point","coordinates":[-35.25,-5.78000020980835]},"properties":{"NAME":"Natal","COUNTRY":"Brazil","CAPITAL":"N"}},
{"type":"Feature","geometry":{"type":"Point","coordinates":[173.27000427246094,-41.29999923706055]},"properties":{"NAME":"Nelson","COUNTRY":"New Zealand","CAPITAL":"N"}},
{"type":"Feature","geometry":{"type":"Point","coordinates":[-165.27000427246094,64.5862808227539]},"properties":{"NAME":"Nome","COUNTRY":"US","CAPITAL":"N"}},
{"type":"Feature","geometry":{"type":"Point","coordinates":[88.0999984741211,69.33000183105469]},"properties":{"NAME":"Noril`sk","COUNTRY":"Russia","CAPITAL":"N"}},
{"type":"Feature","geometry":{"type":"Point","coordinates":[-16.825647354125977,20.899999618530273]},"properties":{"NAME":"Nouadnibou","COUNTRY":"Mauritania","CAPITAL":"N"}},
{"type":"Feature","geometry":{"type":"Point","coordinates":[87.16999816894531,53.70000076293945]},"properties":{"NAME":"Novokuznetsk","COUNTRY":"Russia","CAPITAL":"N"}},
{"type":"Feature","geometry":{"type":"Point","coordinates":[-122.87999725341797,46.91999816894531]},"properties":{"NAME":"Olympia","COUNTRY":"US","CAPITAL":"N"}},
{"type":"Feature","geometry":{"type":"Point","coordinates":[100.47505950927734,-0.9175788164138794]},"properties":{"NAME":"Padang","COUNTRY":"Indonesia","CAPITAL":"N"}},
{"type":"Feature","geometry":{"type":"Point","coordinates":[104.83000183105469,-3]},"properties":{"NAME":"Palembang","COUNTRY":"Indonesia","CAPITAL":"N"}},
{"type":"Feature","geometry":{"type":"Point","coordinates":[21.883169174194336,38.141239166259766]},"properties":{"NAME":"Patrai","COUNTRY":"Greece","CAPITAL":"N"}},
{"type":"Feature","geometry":{"type":"Point","coordinates":[158.72000122070312,53.20000076293945]},"properties":{"NAME":"Petropavloski-Kamchatskiy","COUNTRY":"Russia","CAPITAL":"N"}},
{"type":"Feature","geometry":{"type":"Point","coordinates":[19.399999618530273,42.5]},"properties":{"NAME":"Podgorica","COUNTRY":"Montenegro","CAPITAL":"Y"}},
{"type":"Feature","geometry":{"type":"Point","coordinates":[12.058093070983887,-4.638708114624023]},"properties":{"NAME":"Pointe Noire","COUNTRY":"Congo","CAPITAL":"N"}},
{"type":"Feature","geometry":{"type":"Point","coordinates":[9.15334415435791,-0.8199999928474426]},"properties":{"NAME":"Port Gentil","COUNTRY":"Gabon","CAPITAL":"N"}},
{"type":"Feature","geometry":{"type":"Point","coordinates":[-130.04808044433594,54.42028045654297]},"properties":{"NAME":"Prince Rupert","COUNTRY":"Canada","CAPITAL":"N"}},
{"type":"Feature","geometry":{"type":"Point","coordinates":[-65.64994812011719,45.338134765625]},"properties":{"NAME":"Saint John","COUNTRY":"Canada","CAPITAL":"N"}},
{"type":"Feature","geometry":{"type":"Point","coordinates":[-16.29783821105957,15.951210021972656]},"properties":{"NAME":"Saint Louis","COUNTRY":"Senegal","CAPITAL":"N"}},
{"type":"Feature","geometry":{"type":"Point","coordinates":[66.58000183105469,66.56999969482422]},"properties":{"NAME":"Salekhard","COUNTRY":"Russia","CAPITAL":"N"}},
{"type":"Feature","geometry":{"type":"Point","coordinates":[36.369998931884766,41.31999969482422]},"properties":{"NAME":"Samsun","COUNTRY":"Turkey","CAPITAL":"N"}},
{"type":"Feature","geometry":{"type":"Point","coordinates":[-44.430057525634766,-2.5]},"properties":{"NAME":"Sao Luis","COUNTRY":"Brazil","CAPITAL":"N"}},
{"type":"Feature","geometry":{"type":"Point","coordinates":[18.43000030517578,43.869998931884766]},"properties":{"NAME":"Sarajevo","COUNTRY":"Bosnia/Herz","CAPITAL":"Y"}},
{"type":"Feature","geometry":{"type":"Point","coordinates":[-22.996322631835938,70.52857208251953]},"properties":{"NAME":"Scoresbyund","COUNTRY":"Greenland","CAPITAL":"N"}},
{"type":"Feature","geometry":{"type":"Point","coordinates":[-66.40254211425781,50.28254699707031]},"properties":{"NAME":"Sept-Iles","COUNTRY":"Canada","CAPITAL":"N"}},
{"type":"Feature","geometry":{"type":"Point","coordinates":[-149.4499969482422,60.119998931884766]},"properties":{"NAME":"Seward","COUNTRY":"US","CAPITAL":"N"}},
{"type":"Feature","geometry":{"type":"Point","coordinates":[21.530000686645508,42]},"properties":{"NAME":"Skopje","COUNTRY":"Macedonia","CAPITAL":"Y"}},
{"type":"Feature","geometry":{"type":"Point","coordinates":[5.550000190734863,22.829999923706055]},"properties":{"NAME":"Tamanrasset","COUNTRY":"Algeria","CAPITAL":"N"}},
{"type":"Feature","geometry":{"type":"Point","coordinates":[-69,77.66999816894531]},"properties":{"NAME":"Thule","COUNTRY":"Greenland","CAPITAL":"N"}},
{"type":"Feature","geometry":{"type":"Point","coordinates":[128.75,71.69999694824219]},"properties":{"NAME":"Tiksi","COUNTRY":"Russia","CAPITAL":"N"}},
{"type":"Feature","geometry":{"type":"Point","coordinates":[44.01909255981445,-23.2901554107666]},"properties":{"NAME":"Toliara","COUNTRY":"Madagascar","CAPITAL":"N"}},
{"type":"Feature","geometry":{"type":"Point","coordinates":[-79,-7.929999828338623]},"properties":{"NAME":"Trujillo","COUNTRY":"Peru","CAPITAL":"N"}},
{"type":"Feature","geometry":{"type":"Point","coordinates":[83.33000183105469,17.75]},"properties":{"NAME":"Vishakhapatnam","COUNTRY":"India","CAPITAL":"N"}},
{"type":"Feature","geometry":{"type":"Point","coordinates":[64.33000183105469,67.80000305175781]},"properties":{"NAME":"Vorkuta","COUNTRY":"Russia","CAPITAL":"N"}},
{"type":"Feature","geometry":{"type":"Point","coordinates":[54.45000076293945,31.969999313354492]},"properties":{"NAME":"Yazd","COUNTRY":"Iran","CAPITAL":"N"}},
{"type":"Feature","geometry":{"type":"Point","coordinates":[60.83000183105469,29.600000381469727]},"properties":{"NAME":"Zahedan","COUNTRY":"Iran","CAPITAL":"N"}},
{"type":"Feature","geometry":{"type":"Point","coordinates":[45.18000030517578,12.861159324645996]},"properties":{"NAME":"Aden","COUNTRY":"Yemen","CAPITAL":"N"}},
{"type":"Feature","geometry":{"type":"Point","coordinates":[38.70000076293945,9.029999732971191]},"properties":{"NAME":"Adis Abeba","COUNTRY":"Ethiopia","CAPITAL":"Y"}},
{"type":"Feature","geometry":{"type":"Point","coordinates":[48.002777099609375,29.194990158081055]},"properties":{"NAME":"Al Kuwayt","COUNTRY":"Kuwait","CAPITAL":"Y"}},
{"type":"Feature","geometry":{"type":"Point","coordinates":[47.5,-18.8700008392334]},"properties":{"NAME":"Antananarivo","COUNTRY":"Madagascar","CAPITAL":"Y"}},
{"type":"Feature","geometry":{"type":"Point","coordinates":[46.77000045776367,24.649999618530273]},"properties":{"NAME":"Ar Riyad","COUNTRY":"Saudi Arabia","CAPITAL":"Y"}},
{"type":"Feature","geometry":{"type":"Point","coordinates":[38.970001220703125,15.329999923706055]},"properties":{"NAME":"Asmara","COUNTRY":"Eritrea","CAPITAL":"Y"}},
{"type":"Feature","geometry":{"type":"Point","coordinates":[-57.66999816894531,-25.219999313354492]},"properties":{"NAME":"Asuncion","COUNTRY":"Paraguay","CAPITAL":"Y"}},
{"type":"Feature","geometry":{"type":"Point","coordinates":[23.654863357543945,38.12160110473633]},"properties":{"NAME":"Athinai","COUNTRY":"Greece","CAPITAL":"Y"}},
{"type":"Feature","geometry":{"type":"Point","coordinates":[109.9800033569336,40.650001525878906]},"properties":{"NAME":"Baotou","COUNTRY":"China","CAPITAL":"N"}},
{"type":"Feature","geometry":{"type":"Point","coordinates":[2.1700000762939453,41.529998779296875]},"properties":{"NAME":"Barcelona","COUNTRY":"Spain","CAPITAL":"N"}},
{"type":"Feature","geometry":{"type":"Point","coordinates":[-74.68000030517578,11.014294624328613]},"properties":{"NAME":"Barranquilla","COUNTRY":"Colombia","CAPITAL":"N"}},
{"type":"Feature","geometry":{"type":"Point","coordinates":[35.023170471191406,-19.769283294677734]},"properties":{"NAME":"Beira","COUNTRY":"Mozambique","CAPITAL":"N"}},
{"type":"Feature","geometry":{"type":"Point","coordinates":[35.65794372558594,33.779998779296875]},"properties":{"NAME":"Beirut","COUNTRY":"Lebanon","CAPITAL":"Y"}},
{"type":"Feature","geometry":{"type":"Point","coordinates":[-88.80000305175781,17.1200008392334]},"properties":{"NAME":"Belmopan","COUNTRY":"Belize","CAPITAL":"Y"}},
{"type":"Feature","geometry":{"type":"Point","coordinates":[5.490678310394287,60.349998474121094]},"properties":{"NAME":"Bergen","COUNTRY":"Norway","CAPITAL":"N"}},
{"type":"Feature","geometry":{"type":"Point","coordinates":[-15.649999618530273,11.910989761352539]},"properties":{"NAME":"Bissau","COUNTRY":"GuineaBissau","CAPITAL":"Y"}},
{"type":"Feature","geometry":{"type":"Point","coordinates":[18.690431594848633,-33.80400848388672]},"properties":{"NAME":"Cape Town","COUNTRY":"South Africa","CAPITAL":"N"}},
{"type":"Feature","geometry":{"type":"Point","coordinates":[-3.1500000953674316,51.5]},"properties":{"NAME":"Cardiff","COUNTRY":"UK","CAPITAL":"N"}},
{"type":"Feature","geometry":{"type":"Point","coordinates":[-7.534091949462891,33.544410705566406]},"properties":{"NAME":"Casablanca","COUNTRY":"Morocco","CAPITAL":"N"}},
{"type":"Feature","geometry":{"type":"Point","coordinates":[-52.400001525878906,4.920000076293945]},"properties":{"NAME":"Cayenne","COUNTRY":"Fr Guiana","CAPITAL":"Y"}},
{"type":"Feature","geometry":{"type":"Point","coordinates":[91.83279418945312,22.479999542236328]},"properties":{"NAME":"Chittagong","COUNTRY":"Bangladesh","CAPITAL":"N"}},
{"type":"Feature","geometry":{"type":"Point","coordinates":[80.08833312988281,7.019999980926514]},"properties":{"NAME":"Colombo","COUNTRY":"Sri Lanka","CAPITAL":"Y"}},
{"type":"Feature","geometry":{"type":"Point","coordinates":[-12.800000190734863,9.520000457763672]},"properties":{"NAME":"Conakry","COUNTRY":"Guinea","CAPITAL":"Y"}},
{"type":"Feature","geometry":{"type":"Point","coordinates":[-16.848094940185547,14.630000114440918]},"properties":{"NAME":"Dakar","COUNTRY":"Senegal","CAPITAL":"Y"}},
{"type":"Feature","geometry":{"type":"Point","coordinates":[-105.06999969482422,39.75]},"properties":{"NAME":"Denver","COUNTRY":"US","CAPITAL":"N"}},
{"type":"Feature","geometry":{"type":"Point","coordinates":[68.9000015258789,38.630001068115234]},"properties":{"NAME":"Dushanfe","COUNTRY":"Tajikistan","CAPITAL":"Y"}},
{"type":"Feature","geometry":{"type":"Point","coordinates":[-113.2699966430664,53.56999969482422]},"properties":{"NAME":"Edmonton","COUNTRY":"Canada","CAPITAL":"N"}},
{"type":"Feature","geometry":{"type":"Point","coordinates":[30.850000381469727,30.469999313354492]},"properties":{"NAME":"El-Giza","COUNTRY":"Egypt","CAPITAL":"N"}},
{"type":"Feature","geometry":{"type":"Point","coordinates":[-12.910276412963867,8.382770538330078]},"properties":{"NAME":"Freetown","COUNTRY":"Sierra Leone","CAPITAL":"Y"}},
{"type":"Feature","geometry":{"type":"Point","coordinates":[74.7699966430664,42.880001068115234]},"properties":{"NAME":"Frunze","COUNTRY":"Kyrgyzstan","CAPITAL":"Y"}},
{"type":"Feature","geometry":{"type":"Point","coordinates":[8.922295570373535,44.4550895690918]},"properties":{"NAME":"Genova","COUNTRY":"Italy","CAPITAL":"N"}},
{"type":"Feature","geometry":{"type":"Point","coordinates":[-58.16999816894531,6.769999980926514]},"properties":{"NAME":"Georgetown","COUNTRY":"Guyana","CAPITAL":"Y"}},
{"type":"Feature","geometry":{"type":"Point","coordinates":[12,57.75]},"properties":{"NAME":"Goteborg","COUNTRY":"Sweden","CAPITAL":"N"}},
{"type":"Feature","geometry":{"type":"Point","coordinates":[31.020000457763672,-17.829999923706055]},"properties":{"NAME":"Harare","COUNTRY":"Zimbabwe","CAPITAL":"Y"}},
{"type":"Feature","geometry":{"type":"Point","coordinates":[-82.41645050048828,23.048952102661133]},"properties":{"NAME":"Havana","COUNTRY":"Cuba","CAPITAL":"Y"}},
{"type":"Feature","geometry":{"type":"Point","coordinates":[39.37330627441406,21.6200008392334]},"properties":{"NAME":"Jiddah","COUNTRY":"Saudi Arabia","CAPITAL":"N"}},
{"type":"Feature","geometry":{"type":"Point","coordinates":[32.58000183105469,0.3199999928474426]},"properties":{"NAME":"Kampala","COUNTRY":"Uganda","CAPITAL":"Y"}},
{"type":"Feature","geometry":{"type":"Point","coordinates":[8.520000457763672,11.920000076293945]},"properties":{"NAME":"Kano","COUNTRY":"Nigeria","CAPITAL":"N"}},
{"type":"Feature","geometry":{"type":"Point","coordinates":[120.34148406982422,22.673416137695312]},"properties":{"NAME":"Kao-Hsiung","COUNTRY":"Taiwan","CAPITAL":"N"}},
{"type":"Feature","geometry":{"type":"Point","coordinates":[67.02999877929688,24.850000381469727]},"properties":{"NAME":"Karachi","COUNTRY":"Pakistan","CAPITAL":"N"}},
{"type":"Feature","geometry":{"type":"Point","coordinates":[135.07000732421875,48.529998779296875]},"properties":{"NAME":"Khabarovsk","COUNTRY":"Russia","CAPITAL":"N"}},
{"type":"Feature","geometry":{"type":"Point","coordinates":[32.529998779296875,15.550000190734863]},"properties":{"NAME":"Khartoum","COUNTRY":"Sudan","CAPITAL":"Y"}},
{"type":"Feature","geometry":{"type":"Point","coordinates":[28.829999923706055,47]},"properties":{"NAME":"Kishinev","COUNTRY":"Moldova","CAPITAL":"Y"}},
{"type":"Feature","geometry":{"type":"Point","coordinates":[12.550000190734863,55.720001220703125]},"properties":{"NAME":"Kobenhavn","COUNTRY":"Denmark","CAPITAL":"Y"}},
{"type":"Feature","geometry":{"type":"Point","coordinates":[3.299999952316284,6.449999809265137]},"properties":{"NAME":"Lagos","COUNTRY":"Nigeria","CAPITAL":"N"}},
{"type":"Feature","geometry":{"type":"Point","coordinates":[0.2199999988079071,49.32402038574219]},"properties":{"NAME":"Le Havre","COUNTRY":"France","CAPITAL":"N"}},
{"type":"Feature","geometry":{"type":"Point","coordinates":[9.490456581115723,-0.504144549369812]},"properties":{"NAME":"Libreville","COUNTRY":"Gabon","CAPITAL":"Y"}},
{"type":"Feature","geometry":{"type":"Point","coordinates":[33.81999969482422,-13.920000076293945]},"properties":{"NAME":"Lilongwe","COUNTRY":"Malawi","CAPITAL":"Y"}},
{"type":"Feature","geometry":{"type":"Point","coordinates":[-76.82355499267578,-12.06799602508545]},"properties":{"NAME":"Lima","COUNTRY":"Peru","CAPITAL":"Y"}},
{"type":"Feature","geometry":{"type":"Point","coordinates":[-9.130000114440918,38.72999954223633]},"properties":{"NAME":"Lisboa","COUNTRY":"Portugal","CAPITAL":"Y"}},
{"type":"Feature","geometry":{"type":"Point","coordinates":[-2.766836404800415,53.42268753051758]},"properties":{"NAME":"Liverpool","COUNTRY":"UK","CAPITAL":"N"}},
{"type":"Feature","geometry":{"type":"Point","coordinates":[1.350000023841858,6.28000020980835]},"properties":{"NAME":"Lome","COUNTRY":"Togo","CAPITAL":"Y"}},
{"type":"Feature","geometry":{"type":"Point","coordinates":[-118.25,34]},"properties":{"NAME":"Los Angeles","COUNTRY":"US","CAPITAL":"N"}},
{"type":"Feature","geometry":{"type":"Point","coordinates":[13.46177864074707,-9]},"properties":{"NAME":"Luanda","COUNTRY":"Angola","CAPITAL":"Y"}},
{"type":"Feature","geometry":{"type":"Point","coordinates":[27.549999237060547,-11.680000305175781]},"properties":{"NAME":"Lumumbashi","COUNTRY":"DR Congo","CAPITAL":"N"}},
{"type":"Feature","geometry":{"type":"Point","coordinates":[28.170000076293945,-15.430000305175781]},"properties":{"NAME":"Lusaka","COUNTRY":"Zambia","CAPITAL":"Y"}},
{"type":"Feature","geometry":{"type":"Point","coordinates":[8.819999694824219,3.6446847915649414]},"properties":{"NAME":"Malabo","COUNTRY":"Eq Guinea","CAPITAL":"Y"}},
{"type":"Feature","geometry":{"type":"Point","coordinates":[121.17340850830078,14.550000190734863]},"properties":{"NAME":"Manila","COUNTRY":"Philippines","CAPITAL":"Y"}},
{"type":"Feature","geometry":{"type":"Point","coordinates":[5.380000114440918,43.29999923706055]},"properties":{"NAME":"Marseille","COUNTRY":"France","CAPITAL":"N"}},
{"type":"Feature","geometry":{"type":"Point","coordinates":[58.627479553222656,23.516639709472656]},"properties":{"NAME":"Masqat","COUNTRY":"Oman","CAPITAL":"Y"}},
{"type":"Feature","geometry":{"type":"Point","coordinates":[-106.2699966430664,23.36151123046875]},"properties":{"NAME":"Mazatlan","COUNTRY":"Mexico","CAPITAL":"N"}},
{"type":"Feature","geometry":{"type":"Point","coordinates":[39.66999816894531,-4.019999980926514]},"properties":{"NAME":"Mombasa","COUNTRY":"Kenya","CAPITAL":"N"}},
{"type":"Feature","geometry":{"type":"Point","coordinates":[-10.770000457763672,6.517439365386963]},"properties":{"NAME":"Monrovia","COUNTRY":"Liberia","CAPITAL":"Y"}},
{"type":"Feature","geometry":{"type":"Point","coordinates":[-56.16999816894531,-34.91999816894531]},"properties":{"NAME":"Montevideo","COUNTRY":"Uruguay","CAPITAL":"Y"}},
{"type":"Feature","geometry":{"type":"Point","coordinates":[37.70000076293945,55.75]},"properties":{"NAME":"Moskva","COUNTRY":"Russia","CAPITAL":"Y"}},
{"type":"Feature","geometry":{"type":"Point","coordinates":[36.83000183105469,-1.1699999570846558]},"properties":{"NAME":"Nairobi","COUNTRY":"Kenya","CAPITAL":"Y"}},
{"type":"Feature","geometry":{"type":"Point","coordinates":[14.270000457763672,40.83000183105469]},"properties":{"NAME":"Napoli","COUNTRY":"Italy","CAPITAL":"N"}},
{"type":"Feature","geometry":{"type":"Point","coordinates":[-74.0999984741211,40.75]},"properties":{"NAME":"New York","COUNTRY":"US","CAPITAL":"N"}},
{"type":"Feature","geometry":{"type":"Point","coordinates":[-74.19999694824219,40.720001220703125]},"properties":{"NAME":"Newark","COUNTRY":"US","CAPITAL":"N"}},
{"type":"Feature","geometry":{"type":"Point","coordinates":[-15.78286075592041,18.030000686645508]},"properties":{"NAME":"Nouakchott","COUNTRY":"Mauritania","CAPITAL":"Y"}},
{"type":"Feature","geometry":{"type":"Point","coordinates":[9.902998924255371,55.57453536987305]},"properties":{"NAME":"Odense","COUNTRY":"Denmark","CAPITAL":"N"}},
{"type":"Feature","geometry":{"type":"Point","coordinates":[32.47999954223633,15.619999885559082]},"properties":{"NAME":"Omdurman","COUNTRY":"Sudan","CAPITAL":"N"}},
{"type":"Feature","geometry":{"type":"Point","coordinates":[-0.5199999809265137,35.75]},"properties":{"NAME":"Oran","COUNTRY":"Algeria","CAPITAL":"N"}},
{"type":"Feature","geometry":{"type":"Point","coordinates":[10.720000267028809,59.93000030517578]},"properties":{"NAME":"Oslo","COUNTRY":"Norway","CAPITAL":"Y"}},
{"type":"Feature","geometry":{"type":"Point","coordinates":[-1.6699999570846558,12.479999542236328]},"properties":{"NAME":"Ouagadouou","COUNTRY":"Burkina Faso","CAPITAL":"Y"}},
{"type":"Feature","geometry":{"type":"Point","coordinates":[13.399999618530273,38.130001068115234]},"properties":{"NAME":"Palermo","COUNTRY":"Italy","CAPITAL":"N"}},
{"type":"Feature","geometry":{"type":"Point","coordinates":[-79.4000015258789,8.949999809265137]},"properties":{"NAME":"Panama","COUNTRY":"Panama","CAPITAL":"Y"}},
{"type":"Feature","geometry":{"type":"Point","coordinates":[-55.22999954223633,5.929999828338623]},"properties":{"NAME":"Paramaribo","COUNTRY":"Suriname","CAPITAL":"Y"}},
{"type":"Feature","geometry":{"type":"Point","coordinates":[115.92337036132812,-31.97586441040039]},"properties":{"NAME":"Perth","COUNTRY":"Australia","CAPITAL":"N"}},
{"type":"Feature","geometry":{"type":"Point","coordinates":[147.41452026367188,-9.550000190734863]},"properties":{"NAME":"Port Moresby","COUNTRY":"Papua N Guin","CAPITAL":"Y"}},
{"type":"Feature","geometry":{"type":"Point","coordinates":[-8.487948417663574,41.150001525878906]},"properties":{"NAME":"Porto","COUNTRY":"Portugal","CAPITAL":"N"}},
{"type":"Feature","geometry":{"type":"Point","coordinates":[65.5,31.600000381469727]},"properties":{"NAME":"Qandahar","COUNTRY":"Afghanistan","CAPITAL":"N"}},
{"type":"Feature","geometry":{"type":"Point","coordinates":[121.02999877929688,14.649999618530273]},"properties":{"NAME":"Quezon City","COUNTRY":"Philippines","CAPITAL":"N"}},
{"type":"Feature","geometry":{"type":"Point","coordinates":[-6.748040676116943,33.920196533203125]},"properties":{"NAME":"Rabat","COUNTRY":"Morocco","CAPITAL":"Y"}},
{"type":"Feature","geometry":{"type":"Point","coordinates":[-21.336820602416992,64.31326293945312]},"properties":{"NAME":"Reykjavik","COUNTRY":"Iceland","CAPITAL":"Y"}},
{"type":"Feature","geometry":{"type":"Point","coordinates":[24.049999237060547,56.880001068115234]},"properties":{"NAME":"Riga","COUNTRY":"Latvia","CAPITAL":"Y"}},
{"type":"Feature","geometry":{"type":"Point","coordinates":[12.520000457763672,41.880001068115234]},"properties":{"NAME":"Roma","COUNTRY":"Italy","CAPITAL":"Y"}},
{"type":"Feature","geometry":{"type":"Point","coordinates":[-38.47999954223633,-12.60025691986084]},"properties":{"NAME":"Salvador","COUNTRY":"Brazil","CAPITAL":"N"}},
{"type":"Feature","geometry":{"type":"Point","coordinates":[52.56999969482422,29.6299991607666]},"properties":{"NAME":"Shiraz","COUNTRY":"Iran","CAPITAL":"N"}},
{"type":"Feature","geometry":{"type":"Point","coordinates":[18.08426856994629,59.244632720947266]},"properties":{"NAME":"Stockholm","COUNTRY":"Sweden","CAPITAL":"Y"}},
{"type":"Feature","geometry":{"type":"Point","coordinates":[112.68437194824219,-7.400000095367432]},"properties":{"NAME":"Surabaja","COUNTRY":"Indonesia","CAPITAL":"N"}},
{"type":"Feature","geometry":{"type":"Point","coordinates":[120.2300033569336,23.170000076293945]},"properties":{"NAME":"T`ai-nan","COUNTRY":"Taiwan","CAPITAL":"N"}},
{"type":"Feature","geometry":{"type":"Point","coordinates":[-82.59302520751953,27.997358322143555]},"properties":{"NAME":"Tampa","COUNTRY":"US","CAPITAL":"N"}},
{"type":"Feature","geometry":{"type":"Point","coordinates":[34.856834411621094,31.917198181152344]},"properties":{"NAME":"Tel Aviv-Yafo","COUNTRY":"Israel","CAPITAL":"N"}},
{"type":"Feature","geometry":{"type":"Point","coordinates":[22.799999237060547,40.630001068115234]},"properties":{"NAME":"Thessaloniki","COUNTRY":"Greece","CAPITAL":"N"}},
{"type":"Feature","geometry":{"type":"Point","coordinates":[69.34986877441406,41.24793243408203]},"properties":{"NAME":"Toshkent","COUNTRY":"Uzbekistan","CAPITAL":"Y"}},
{"type":"Feature","geometry":{"type":"Point","coordinates":[36.0070686340332,34.34375762939453]},"properties":{"NAME":"Tripoli","COUNTRY":"Lebanon","CAPITAL":"N"}},
{"type":"Feature","geometry":{"type":"Point","coordinates":[-71.2993392944336,-32.900001525878906]},"properties":{"NAME":"Valparaiso","COUNTRY":"Chile","CAPITAL":"N"}},
{"type":"Feature","geometry":{"type":"Point","coordinates":[-122.96306610107422,49.27429962158203]},"properties":{"NAME":"Vancouver","COUNTRY":"Canada","CAPITAL":"N"}},
{"type":"Feature","geometry":{"type":"Point","coordinates":[131.96043395996094,43.130001068115234]},"properties":{"NAME":"Vladivostok","COUNTRY":"Russia","CAPITAL":"N"}},
{"type":"Feature","geometry":{"type":"Point","coordinates":[14.617104530334473,-23.10186767578125]},"properties":{"NAME":"Walvis Bay","COUNTRY":"South Africa","CAPITAL":"N"}},
{"type":"Feature","geometry":{"type":"Point","coordinates":[17.100000381469727,-22.56999969482422]},"properties":{"NAME":"Windhoek","COUNTRY":"Namibia","CAPITAL":"Y"}},
{"type":"Feature","geometry":{"type":"Point","coordinates":[175.1449432373047,-41.21039581298828]},"properties":{"NAME":"Wellington","COUNTRY":"New Zealand","CAPITAL":"Y"}},
{"type":"Feature","geometry":{"type":"Point","coordinates":[-122.316650390625,47.58855438232422]},"properties":{"NAME":"Seattle","COUNTRY":"US","CAPITAL":"N"}},
{"type":"Feature","geometry":{"type":"Point","coordinates":[-117.12549591064453,32.76145935058594]},"properties":{"NAME":"San Diego","COUNTRY":"US","CAPITAL":"N"}},
{"type":"Feature","geometry":{"type":"Point","coordinates":[-69.91326141357422,-20.260000228881836]},"properties":{"NAME":"Iquique","COUNTRY":"Chile","CAPITAL":"N"}},
{"type":"Feature","geometry":{"type":"Point","coordinates":[54.61927032470703,24.236007690429688]},"properties":{"NAME":"Abu Dhabi","COUNTRY":"Untd Arab Em","CAPITAL":"Y"}},
{"type":"Feature","geometry":{"type":"Point","coordinates":[-72.00545501708984,7.576601028442383]},"properties":{"NAME":"San Cristobal","COUNTRY":"Venezuela","CAPITAL":"N"}},
{"type":"Feature","geometry":{"type":"Point","coordinates":[48,46.25]},"properties":{"NAME":"Astrakhan","COUNTRY":"Russia","CAPITAL":"N"}},
{"type":"Feature","geometry":{"type":"Point","coordinates":[9.818350791931152,30.13860321044922]},"properties":{"NAME":"Ghadamis","COUNTRY":"Libya","CAPITAL":"N"}},
{"type":"Feature","geometry":{"type":"Point","coordinates":[-57.70877456665039,-31.305152893066406]},"properties":{"NAME":"Salta","COUNTRY":"Uruguay","CAPITAL":"N"}},
{"type":"Feature","geometry":{"type":"Point","coordinates":[-114.06136322021484,62.52061462402344]},"properties":{"NAME":"Yellowknife","COUNTRY":"Canada","CAPITAL":"N"}},
{"type":"Feature","geometry":{"type":"Point","coordinates":[-155.06729125976562,19.714815139770508]},"properties":{"NAME":"Hilo","COUNTRY":"US","CAPITAL":"N"}},
{"type":"Feature","geometry":{"type":"Point","coordinates":[-157.80618286132812,21.321176528930664]},"properties":{"NAME":"Honolulu","COUNTRY":"US","CAPITAL":"N"}},
{"type":"Feature","geometry":{"type":"Point","coordinates":[-149.1729736328125,61.18864822387695]},"properties":{"NAME":"Anchorage","COUNTRY":"US","CAPITAL":"N"}},
{"type":"Feature","geometry":{"type":"Point","coordinates":[-147.65118408203125,64.8387451171875]},"properties":{"NAME":"Fairbanks","COUNTRY":"US","CAPITAL":"N"}},
{"type":"Feature","geometry":{"type":"Point","coordinates":[-134.13247680664062,58.39100646972656]},"properties":{"NAME":"Juneau","COUNTRY":"US","CAPITAL":"N"}},
{"type":"Feature","geometry":{"type":"Point","coordinates":[-121.84745788574219,37.30810546875]},"properties":{"NAME":"San Jose","COUNTRY":"US","CAPITAL":"N"}},
{"type":"Feature","geometry":{"type":"Point","coordinates":[-105.96663665771484,28.55813980102539]},"properties":{"NAME":"Chihuaha","COUNTRY":"Mexico","CAPITAL":"N"}},
{"type":"Feature","geometry":{"type":"Point","coordinates":[-96.08406066894531,19.009675979614258]},